"Id","AthleteId","RecruitType","Year","Ranking","Player","School","CommittedTo","Height","Weight","Stars","Rating","City","State","Country","Latitude","Longitude","FipsCode","Rk","Tm","Age","NFL_Position","G","GS","Tgt","Rec","Catch_Pct","Yds","Y/R","TD","First_Downs","Success_Rate","Lng","Yd_per_Target","Rec_per_Game","Yd_per_Game","Fmb"
31870,3925357,"HighSchool",2015,12,"Calvin Ridley","Monarch","Alabama",72,170,5,0.9932,"Pompano Beach","FL","USA",26.2378597,-80.1247667,12011,30,"JAX",29,"WR",17,17,136,76,0.559,1016,13.4,8,49,48.5,59,7.5,4.5,59.8,1
31877,3728254,"HighSchool",2015,18,"Deon Cain","Tampa Bay Tech","Clemson",73.5,194,5,0.9902,"Tampa","FL","USA",27.9477595,-82.458444,12057,NA,NA,NA,NA,NA,NA,NA,NA,NA,NA,NA,NA,NA,NA,NA,NA,NA,NA,NA
31878,3692942,"HighSchool",2015,19,"George Campbell","East Lake","Florida State",75,184,5,0.9902,"Tarpon Springs","FL","USA",28.14808295,-82.743801597179,12103,NA,NA,NA,NA,NA,NA,NA,NA,NA,NA,NA,NA,NA,NA,NA,NA,NA,NA,NA
31884,3895856,"HighSchool",2015,25,"Christian Kirk","Saguaro","Texas A&M",70,191,5,0.9886,"Scottsdale","AZ","USA",33.4942189,-111.9260184,4013,65,"JAX",27,"WR",12,12,85,57,0.671,787,13.8,3,34,57.6,57,9.3,4.8,65.6,2
31886,3894912,"HighSchool",2015,28,"Tyron Johnson","Warren Easton","LSU",73,191,5,0.9879,"New Orleans","LA","USA",29.9499323,-90.0701156,22071,NA,NA,NA,NA,NA,NA,NA,NA,NA,NA,NA,NA,NA,NA,NA,NA,NA,NA,NA
31902,-1021698,"HighSchool",2015,42,"Damarkus Lodge","Cedar Hill","Ole Miss",74.5,190,4,0.9817,"Cedar Hill","TX","USA",32.5888072,-96.9553675,48113,NA,NA,NA,NA,NA,NA,NA,NA,NA,NA,NA,NA,NA,NA,NA,NA,NA,NA,NA
31907,3915399,"HighSchool",2015,47,"Preston Williams","Lovejoy","Tennessee",76,191,4,0.9769,"Hampton","GA","USA",33.3870578,-84.2829784,13151,NA,NA,NA,NA,NA,NA,NA,NA,NA,NA,NA,NA,NA,NA,NA,NA,NA,NA,NA
31929,NA,"HighSchool",2015,70,"Trent Irwin","Hart","Stanford",73.5,189,4,0.9629,"Newhall","CA","USA",37.3485422,-121.920398806921,6085,NA,NA,NA,NA,NA,NA,NA,NA,NA,NA,NA,NA,NA,NA,NA,NA,NA,NA,NA
31949,3925343,"HighSchool",2015,92,"Daylon Charlot","Patterson","Alabama",72,193,4,0.957,"Patterson","LA","USA",29.6933,-91.3021,6099,NA,NA,NA,NA,NA,NA,NA,NA,NA,NA,NA,NA,NA,NA,NA,NA,NA,NA,NA
31958,3692779,"HighSchool",2015,100,"Da'Vante Phillips","Miami Central","Florida State",74,204,4,0.9533,"Miami","FL","USA",25.7742658,-80.1936589,12086,NA,NA,NA,NA,NA,NA,NA,NA,NA,NA,NA,NA,NA,NA,NA,NA,NA,NA,NA
31967,3930066,"HighSchool",2015,106,"Van Jefferson","Ravenwood","Ole Miss",74,183,4,0.9517,"Brentwood","TN","USA",36.0325687,-86.7825235,47187,203,"2TM",27,"WR",17,9,43,20,0.465,209,10.5,0,10,37.2,46,4.9,1.2,12.3,0
31976,3886838,"HighSchool",2015,120,"Alex Ofodile","Rock Bridge","Oregon",74,185,4,0.9454,"Columbia","MO","USA",38.951883,-92.3337366,29019,NA,NA,NA,NA,NA,NA,NA,NA,NA,NA,NA,NA,NA,NA,NA,NA,NA,NA,NA
31988,3929645,"HighSchool",2015,128,"Juwan Johnson","Glassboro","Penn State",76,216,4,0.9428,"Glassboro","NJ","USA",39.7027677,-75.1119434,34015,119,"NOR",27,"TE",13,11,59,37,0.627,368,9.9,4,23,50.8,32,6.2,2.8,28.3,0
31997,3929844,"HighSchool",2015,137,"John Burt","Lincoln","Texas",75,180,4,0.9392,"Tallahassee","FL","USA",30.4380832,-84.2809332,12073,NA,NA,NA,NA,NA,NA,NA,NA,NA,NA,NA,NA,NA,NA,NA,NA,NA,NA,NA
32000,3916945,"HighSchool",2015,140,"Darius Slayton","Greater Atlanta Christian School","Auburn",73,182,4,0.938,"Norcross","GA","USA",33.9412127,-84.2135309,13135,82,"NYG",26,"WR",17,13,79,50,0.633,770,15.4,4,29,49.4,80,9.7,2.9,45.3,0
32011,3915522,"HighSchool",2015,153,"K.J. Hill","North Little Rock","Ohio State",72,188,4,0.933,"North Little Rock","AR","USA",34.769536,-92.2670941,5119,NA,NA,NA,NA,NA,NA,NA,NA,NA,NA,NA,NA,NA,NA,NA,NA,NA,NA,NA
32015,3916069,"HighSchool",2015,159,"Jovon Durante","Miramar","West Virginia",72,162,4,0.9314,"Miami","FL","USA",25.7742658,-80.1936589,12086,NA,NA,NA,NA,NA,NA,NA,NA,NA,NA,NA,NA,NA,NA,NA,NA,NA,NA,NA
32019,3932442,"HighSchool",2015,162,"Equanimeous St. Brown","Servite","Notre Dame",77,205,4,0.9298,"Anaheim","CA","USA",33.8347516,-117.911732,6059,352,"CHI",27,"WR",7,2,6,5,0.833,62,12.4,0,3,83.3,21,10.3,0.7,8.9,0
32024,-1006248,"HighSchool",2015,163,"Carlos Strickland","Skyline","California",77,194,4,0.9291,"Dallas","TX","USA",32.7762719,-96.7968559,48113,NA,NA,NA,NA,NA,NA,NA,NA,NA,NA,NA,NA,NA,NA,NA,NA,NA,NA,NA
32027,3843469,"HighSchool",2015,166,"Derrick Dillon","Pine","LSU",71,173,4,0.9272,"Franklinton","LA","USA",30.8471283,-90.153141,22117,NA,NA,NA,NA,NA,NA,NA,NA,NA,NA,NA,NA,NA,NA,NA,NA,NA,NA,NA
32046,3916946,"HighSchool",2015,178,"Ryan Davis","Lakewood","Auburn",70.5,172,4,0.9235,"Saint Petersburg","FL","USA",27.7703796,-82.6695085,12103,NA,NA,NA,NA,NA,NA,NA,NA,NA,NA,NA,NA,NA,NA,NA,NA,NA,NA,NA
32036,NA,"HighSchool",2015,188,"JF Thomas","South Oak Cliff","Texas Tech",76,185,4,0.9217,"Dallas","TX","USA",32.7762719,-96.7968559,48113,NA,NA,NA,NA,NA,NA,NA,NA,NA,NA,NA,NA,NA,NA,NA,NA,NA,NA,NA
32044,3892773,"HighSchool",2015,196,"Blake Lynch","Gilmer","Baylor",75,195,4,0.9199,"Gilmer","TX","USA",32.7312256,-94.9469309,48459,NA,NA,NA,NA,NA,NA,NA,NA,NA,NA,NA,NA,NA,NA,NA,NA,NA,NA,NA
32054,3932423,"HighSchool",2015,203,"Miles Boykin","Providence Catholic","Notre Dame",76,220,4,0.9177,"New Lenox","IL","USA",41.5119761,-87.9656098,17197,379,"PIT",27,"WR",17,0,4,3,0.75,17,5.7,0,0,50,6,4.3,0.2,1,0
32075,NA,"HighSchool",2015,218,"Desean Holmes","Bishop Alemany","San Diego State",70.5,170,4,0.9127,"Pasadena","CA","USA",34.1476452,-118.1444779,6037,NA,NA,NA,NA,NA,NA,NA,NA,NA,NA,NA,NA,NA,NA,NA,NA,NA,NA,NA
32083,3929853,"HighSchool",2015,220,"Ryan Newsome","Aledo","Texas",68,170,4,0.9119,"Aledo","TX","USA",32.69900905,-97.6039662977449,48367,NA,NA,NA,NA,NA,NA,NA,NA,NA,NA,NA,NA,NA,NA,NA,NA,NA,NA,NA
32080,NA,"HighSchool",2015,222,"Cordell Broadus","Bishop Gorman","UCLA",74,195,4,0.9117,"Las Vegas","NV","USA",36.1672559,-115.1485163,32003,NA,NA,NA,NA,NA,NA,NA,NA,NA,NA,NA,NA,NA,NA,NA,NA,NA,NA,NA
32103,3915190,"HighSchool",2015,244,"Jayson Stanley","Creekside","Georgia",74,198,4,0.9055,"Fairburn","GA","USA",33.5670562,-84.5810418,13121,NA,NA,NA,NA,NA,NA,NA,NA,NA,NA,NA,NA,NA,NA,NA,NA,NA,NA,NA
32108,3929047,"HighSchool",2015,254,"Tristan Payton","First Coast","UCF",72,182,4,0.9063,"Jacksonville","FL","USA",30.3321838,-81.655651,12031,NA,NA,NA,NA,NA,NA,NA,NA,NA,NA,NA,NA,NA,NA,NA,NA,NA,NA,NA
32123,3921564,"HighSchool",2015,273,"Auden Tate","Wharton","Florida State",76.5,215,4,0.9025,"Tampa","FL","USA",27.9477595,-82.458444,12057,NA,NA,NA,NA,NA,NA,NA,NA,NA,NA,NA,NA,NA,NA,NA,NA,NA,NA,NA
32140,3917317,"HighSchool",2015,274,"Kemah Siverand","Cy Ridge","Texas A&M",72,187,4,0.9024,"Houston","TX","USA",29.7589382,-95.3676974,48201,NA,NA,NA,NA,NA,NA,NA,NA,NA,NA,NA,NA,NA,NA,NA,NA,NA,NA,NA
32126,3858276,"HighSchool",2015,276,"Jaylinn Hawkins","Buena Park","California",73,180,4,0.9019,"Buena Park","CA","USA",33.870413,-117.9962165,6059,NA,NA,NA,NA,NA,NA,NA,NA,NA,NA,NA,NA,NA,NA,NA,NA,NA,NA,NA
66934,NA,"HighSchool",2015,285,"Ahmad Wagner","Wayne",NA,79,190,4,0.9,"Dayton","OH","USA",39.7589478,-84.1916069,39113,NA,NA,NA,NA,NA,NA,NA,NA,NA,NA,NA,NA,NA,NA,NA,NA,NA,NA,NA
32139,3932440,"HighSchool",2015,288,"CJ Sanders","Notre Dame","Notre Dame",69,177,4,0.8997,"Sherman Oaks","CA","USA",34.1508718,-118.4489865,6037,NA,NA,NA,NA,NA,NA,NA,NA,NA,NA,NA,NA,NA,NA,NA,NA,NA,NA,NA
32141,-1011317,"HighSchool",2015,290,"L.J. Reed","Cosumnes Oaks","Fresno State",75,200,4,0.8994,"Elk Grove","CA","USA",38.4087993,-121.3716178,6067,NA,NA,NA,NA,NA,NA,NA,NA,NA,NA,NA,NA,NA,NA,NA,NA,NA,NA,NA
32152,3843603,"HighSchool",2015,301,"Jazz Ferguson","West Feliciana","LSU",77,205,4,0.8983,"Saint Francisville","LA","USA",30.7881,-91.3768,29045,NA,NA,NA,NA,NA,NA,NA,NA,NA,NA,NA,NA,NA,NA,NA,NA,NA,NA,NA
32157,3915534,"HighSchool",2015,305,"Alex Stump","St. Edward","Ohio State",75.5,195,4,0.8973,"Lakewood","OH","USA",41.4819932,-81.7981908,39035,NA,NA,NA,NA,NA,NA,NA,NA,NA,NA,NA,NA,NA,NA,NA,NA,NA,NA,NA
66938,3929636,"HighSchool",2015,307,"Irvin Charles","Paul VI","Penn State",76,212,4,0.8971,"Haddonfield","NJ","USA",39.8915022,-75.0376707,34007,466,"NYJ",26,"WR",12,0,1,0,0,0,NA,0,0,0,0,0,0,0,0
32172,3929652,"HighSchool",2015,317,"Brandon Polk","Briar Woods","Penn State",69,163,4,0.8947,"Ashburn","VA","USA",39.0437192,-77.4874899,51107,NA,NA,NA,NA,NA,NA,NA,NA,NA,NA,NA,NA,NA,NA,NA,NA,NA,NA,NA
32206,3916417,"HighSchool",2015,328,"Devante Peete","St. Thomas Aquinas","Louisville",77.5,195,4,0.8922,"Pompano Beach","FL","USA",26.2378597,-80.1247667,12011,NA,NA,NA,NA,NA,NA,NA,NA,NA,NA,NA,NA,NA,NA,NA,NA,NA,NA,NA
32202,NA,"HighSchool",2015,329,"Kanya Bell","Long Beach Poly","San José State",72,160,4,0.8914,"Diamond Bar","CA","USA",34.0286226,-117.8103367,6037,NA,NA,NA,NA,NA,NA,NA,NA,NA,NA,NA,NA,NA,NA,NA,NA,NA,NA,NA
32207,3917007,"HighSchool",2015,330,"Chad President","Temple","Tulsa",75,195,4,0.8914,"Temple","TX","USA",31.098207,-97.3427847,48027,NA,NA,NA,NA,NA,NA,NA,NA,NA,NA,NA,NA,NA,NA,NA,NA,NA,NA,NA
32212,3915097,"HighSchool",2015,342,"Antonio Callaway","Booker T. Washington","Florida",71,185,4,0.8902,"Miami","FL","USA",25.7742658,-80.1936589,12086,NA,NA,NA,NA,NA,NA,NA,NA,NA,NA,NA,NA,NA,NA,NA,NA,NA,NA,NA
32195,3886828,"HighSchool",2015,345,"Isaiah Renfro","Sierra Canyon","Washington",74,185,3,0.8898,"Chatsworth","CA","USA",34.2595715,-118.6023247,6037,NA,NA,NA,NA,NA,NA,NA,NA,NA,NA,NA,NA,NA,NA,NA,NA,NA,NA,NA
32197,3917849,"HighSchool",2015,347,"Lawrence Cager","Calvert Hall College","Miami",77,195,3,0.8895,"Towson","MD","USA",39.4018552,-76.602388,24005,358,"NYG",26,"TE",11,0,5,4,0.8,36,9,1,2,60,10,7.2,0.4,3.3,0
32209,NA,"HighSchool",2015,348,"Brandon Martin","Prime Prep Academy","LSU",76.5,200,3,0.8894,"Dallas","TX","USA",32.7762719,-96.7968559,48113,NA,NA,NA,NA,NA,NA,NA,NA,NA,NA,NA,NA,NA,NA,NA,NA,NA,NA,NA
32210,3915416,"HighSchool",2015,355,"D.J. Moore","Imhotep Institute","Maryland",72,180,3,0.8872,"Philadelphia","PA","USA",39.9527237,-75.1635262,42101,13,"CHI",26,"WR",17,17,136,96,0.706,1364,14.2,8,64,59.6,58,10,5.6,80.2,1
32245,3675229,"HighSchool",2015,372,"Terrell Chatman","Central","Arizona State",75,180,3,0.8852,"Baton Rouge","LA","USA",30.4459596,-91.18738,22033,NA,NA,NA,NA,NA,NA,NA,NA,NA,NA,NA,NA,NA,NA,NA,NA,NA,NA,NA
32229,3915167,"HighSchool",2015,377,"Michael Chigbu","Holy Cross","Georgia",74,211,3,0.8838,"New Orleans","LA","USA",29.9499323,-90.0701156,22071,NA,NA,NA,NA,NA,NA,NA,NA,NA,NA,NA,NA,NA,NA,NA,NA,NA,NA,NA
32230,3932430,"HighSchool",2015,378,"Jalen Guyton","Allen","Notre Dame",73,190,3,0.8838,"Allen","TX","USA",33.1031744,-96.6705503,48085,288,"LAC",26,"WR",8,3,21,10,0.476,89,8.9,1,6,38.1,18,4.2,1.3,11.1,0
32260,3928935,"HighSchool",2015,380,"Pooh Stricklin","Midway","Baylor",75,180,3,0.8834,"Waco","TX","USA",31.549333,-97.1466695,48309,NA,NA,NA,NA,NA,NA,NA,NA,NA,NA,NA,NA,NA,NA,NA,NA,NA,NA,NA
32236,-1023322,"HighSchool",2015,383,"Lavan Alston","St. Bonaventure","Nebraska",72,170,3,0.8832,"Ventura","CA","USA",34.3435092,-119.295604231637,6111,NA,NA,NA,NA,NA,NA,NA,NA,NA,NA,NA,NA,NA,NA,NA,NA,NA,NA,NA
32284,3699902,"HighSchool",2015,397,"Stanley Morgan","St. Augustine","Nebraska",72,185,3,0.8806,"New Orleans","LA","USA",29.9499323,-90.0701156,22071,NA,NA,NA,NA,NA,NA,NA,NA,NA,NA,NA,NA,NA,NA,NA,NA,NA,NA,NA
32258,3676529,"HighSchool",2015,413,"Jarrison Stewart","Horn","TCU",71,172,3,0.8786,"Mesquite","TX","USA",32.7666103,-96.599472,48113,NA,NA,NA,NA,NA,NA,NA,NA,NA,NA,NA,NA,NA,NA,NA,NA,NA,NA,NA
32282,3676928,"HighSchool",2015,434,"Jaelan Austin","South Grand Prairie","TCU",74.5,190,3,0.8767,"Grand Prairie","TX","USA",32.657368,-97.0284662417503,48113,NA,NA,NA,NA,NA,NA,NA,NA,NA,NA,NA,NA,NA,NA,NA,NA,NA,NA,NA
32288,3915821,"HighSchool",2015,437,"Tony Brown","La Mirada","Texas Tech",73,175,3,0.8762,"La Mirada","CA","USA",33.9060971,-118.0107092,6037,NA,NA,NA,NA,NA,NA,NA,NA,NA,NA,NA,NA,NA,NA,NA,NA,NA,NA,NA
32325,-1032041,"HighSchool",2015,470,"Christian Owens","Griffin","South Carolina",77,207,3,0.8727,"Griffin","GA","USA",33.2467807,-84.2640904,13255,NA,NA,NA,NA,NA,NA,NA,NA,NA,NA,NA,NA,NA,NA,NA,NA,NA,NA,NA
32326,3895826,"HighSchool",2015,471,"Juval Mollette","Randleman","North Carolina",76,187,3,0.8727,"Randleman","NC","USA",35.8179143,-79.8030873,37151,NA,NA,NA,NA,NA,NA,NA,NA,NA,NA,NA,NA,NA,NA,NA,NA,NA,NA,NA
32328,3924369,"HighSchool",2015,473,"D.J. Neal","Stephenson","South Carolina",76,200,3,0.8727,"Stone Mountain","GA","USA",33.8080924,-84.1706273,13089,NA,NA,NA,NA,NA,NA,NA,NA,NA,NA,NA,NA,NA,NA,NA,NA,NA,NA,NA
32333,3728242,"HighSchool",2015,478,"Shadell Bell","Columbia","Clemson",75,190,3,0.8721,"Decatur","GA","USA",33.7737582,-84.296069,13089,NA,NA,NA,NA,NA,NA,NA,NA,NA,NA,NA,NA,NA,NA,NA,NA,NA,NA,NA
32337,3929817,"HighSchool",2015,482,"Felton Davis III","Highland Springs","Michigan State",75,175,3,0.8717,"Highland Springs","VA","USA",37.5460121,-77.3278441,51087,NA,NA,NA,NA,NA,NA,NA,NA,NA,NA,NA,NA,NA,NA,NA,NA,NA,NA,NA
32363,3917832,"HighSchool",2015,511,"Christian Philpott","North Florida Christian","Georgia Tech",75,203,3,0.8696,"Tallahassee","FL","USA",30.4380832,-84.2809332,12073,NA,NA,NA,NA,NA,NA,NA,NA,NA,NA,NA,NA,NA,NA,NA,NA,NA,NA,NA
32383,3927809,"HighSchool",2015,524,"Tavares Martin","Dwyer","Washington State",73,160,3,0.8676,"Lake Worth","FL","USA",26.615891,-80.0691435,12099,NA,NA,NA,NA,NA,NA,NA,NA,NA,NA,NA,NA,NA,NA,NA,NA,NA,NA,NA
32379,3915245,"HighSchool",2015,526,"Jabari Greenwood","Gonzaga","Kentucky",76,193,3,0.8681,"Washington","DC","USA",38.8949855,-77.0365708,11001,NA,NA,NA,NA,NA,NA,NA,NA,NA,NA,NA,NA,NA,NA,NA,NA,NA,NA,NA
66942,3927809,"HighSchool",2015,529,"Tavares Martin Jr.","Dwyer","Washington State",73,160,3,0.8676,"Lake Worth","FL","USA",26.615891,-80.0691435,12099,NA,NA,NA,NA,NA,NA,NA,NA,NA,NA,NA,NA,NA,NA,NA,NA,NA,NA,NA
32385,NA,"HighSchool",2015,531,"TJ Rahming","McEachern","Duke",69,155,3,0.8675,"Powder Springs","GA","USA",33.8595492,-84.683824,13067,NA,NA,NA,NA,NA,NA,NA,NA,NA,NA,NA,NA,NA,NA,NA,NA,NA,NA,NA
32390,3916204,"HighSchool",2015,537,"James Proche","DeSoto","SMU",72,185,3,0.8671,"DeSoto","TX","USA",32.6061241,-96.865612653687,48113,476,"CLE",27,"WR",10,1,5,0,0,0,NA,0,0,0,0,0,0,0,1
32457,3917788,"HighSchool",2015,548,"Keyston Fuller","Griffin","Duke",71,180,3,0.8661,"Griffin","GA","USA",33.2467807,-84.2640904,13255,NA,NA,NA,NA,NA,NA,NA,NA,NA,NA,NA,NA,NA,NA,NA,NA,NA,NA,NA
32406,3707332,"HighSchool",2015,551,"Dahu Green","Westmoore","Oklahoma",76,205,3,0.8656,"Oklahoma City","OK","USA",35.4729886,-97.5170536,40109,NA,NA,NA,NA,NA,NA,NA,NA,NA,NA,NA,NA,NA,NA,NA,NA,NA,NA,NA
32431,4035380,"HighSchool",2015,577,"Dontea Jones","Louisville","Mississippi State",76,250,3,0.864,"Louisville","MS","USA",33.1237377,-89.0550624,28159,NA,NA,NA,NA,NA,NA,NA,NA,NA,NA,NA,NA,NA,NA,NA,NA,NA,NA,NA
32432,3915987,"HighSchool",2015,578,"Flynn Nagel","Lemont","Northwestern",71,190,3,0.864,"Chicago","IL","USA",41.8755616,-87.6244212,17031,NA,NA,NA,NA,NA,NA,NA,NA,NA,NA,NA,NA,NA,NA,NA,NA,NA,NA,NA
32442,NA,"HighSchool",2015,589,"Darrion Flowers","Sam Houston",NA,69,158,3,0.8635,"Arlington","TX","USA",32.7019389999999,-97.1056237903369,48439,NA,NA,NA,NA,NA,NA,NA,NA,NA,NA,NA,NA,NA,NA,NA,NA,NA,NA,NA
32449,3919535,"HighSchool",2015,595,"Steven Claude","Champagnat Catholic - Hialeah","Wake Forest",72.5,182,3,0.863,"Miami","FL","USA",25.7742658,-80.1936589,12086,NA,NA,NA,NA,NA,NA,NA,NA,NA,NA,NA,NA,NA,NA,NA,NA,NA,NA,NA
32460,3931397,"HighSchool",2015,605,"JJ Arcega-Whiteside","Dorman","Stanford",75,200,3,0.8624,"Roebuck","SC","USA",34.8826085,-81.9654710090805,45083,NA,NA,NA,NA,NA,NA,NA,NA,NA,NA,NA,NA,NA,NA,NA,NA,NA,NA,NA
32462,3929796,"HighSchool",2015,607,"Leon Thornton","Montini Catholic","Indiana",74,190,3,0.8621,"Lombard","IL","USA",41.8864687,-88.0201536,17043,NA,NA,NA,NA,NA,NA,NA,NA,NA,NA,NA,NA,NA,NA,NA,NA,NA,NA,NA
32463,3921953,"HighSchool",2015,608,"Spencer Tears","H L Richards","Northern Illinois",74,175,3,0.8621,"Oak Lawn","IL","USA",41.7108662,-87.7581081,17031,NA,NA,NA,NA,NA,NA,NA,NA,NA,NA,NA,NA,NA,NA,NA,NA,NA,NA,NA
32487,NA,"HighSchool",2015,628,"George Wilson","Tustin","Utah",75,180,3,0.8607,"Tustin","CA","USA",33.7458511,-117.826166,6059,NA,NA,NA,NA,NA,NA,NA,NA,NA,NA,NA,NA,NA,NA,NA,NA,NA,NA,NA
66944,4361016,"HighSchool",2015,631,"Siaosi Mariner","Tustin","Utah",75,180,3,0.8607,"Tustin","CA","USA",33.7458511,-117.826166,6059,NA,NA,NA,NA,NA,NA,NA,NA,NA,NA,NA,NA,NA,NA,NA,NA,NA,NA,NA
32509,3916416,"HighSchool",2015,654,"Emonee Spence","Charles W Flanagan","Louisville",74,181,3,0.8596,"Hollywood","FL","USA",26.0112014,-80.1494901,12011,NA,NA,NA,NA,NA,NA,NA,NA,NA,NA,NA,NA,NA,NA,NA,NA,NA,NA,NA
32515,-1006222,"HighSchool",2015,660,"Austin Aaron","Napa","California",77,205,3,0.8593,"Napa","CA","USA",38.2971367,-122.2855293,6055,NA,NA,NA,NA,NA,NA,NA,NA,NA,NA,NA,NA,NA,NA,NA,NA,NA,NA,NA
32517,NA,"HighSchool",2015,662,"Darquavious Mangham","Griffin",NA,75,180,3,0.8593,"Griffin","GA","USA",33.2467807,-84.2640904,13255,NA,NA,NA,NA,NA,NA,NA,NA,NA,NA,NA,NA,NA,NA,NA,NA,NA,NA,NA
32530,3917613,"HighSchool",2015,675,"Sam Mays","The Kinkaid School","Illinois",75.5,181,3,0.8588,"Houston","TX","USA",29.7589382,-95.3676974,48201,NA,NA,NA,NA,NA,NA,NA,NA,NA,NA,NA,NA,NA,NA,NA,NA,NA,NA,NA
32537,3921684,"HighSchool",2015,682,"Jeremy Kelly","Salesian","San José State",73,169,3,0.8584,"Los Angeles","CA","USA",34.0536909,-118.2427666,6037,NA,NA,NA,NA,NA,NA,NA,NA,NA,NA,NA,NA,NA,NA,NA,NA,NA,NA,NA
32545,3932935,"HighSchool",2015,690,"Deontay Burnett","Junipero Serra","USC",72.5,166,3,0.8584,"Gardena","CA","USA",33.8963593,-118.3053037,6037,NA,NA,NA,NA,NA,NA,NA,NA,NA,NA,NA,NA,NA,NA,NA,NA,NA,NA,NA
32558,3921571,"HighSchool",2015,703,"Nyqwan Murray","Oak Ridge","Florida State",70.5,163,3,0.8575,"Orlando","FL","USA",28.5421109,-81.3790304,12095,NA,NA,NA,NA,NA,NA,NA,NA,NA,NA,NA,NA,NA,NA,NA,NA,NA,NA,NA
32571,3932194,"HighSchool",2015,716,"Alfred Smith","Destrehan","Utah",70,180,3,0.8569,"Destrehan","LA","USA",29.960933,-90.3705407077716,22089,NA,NA,NA,NA,NA,NA,NA,NA,NA,NA,NA,NA,NA,NA,NA,NA,NA,NA,NA
32599,3931426,"HighSchool",2015,744,"Cedric Peterson","Rancho Verde","Arizona",72,180,3,0.8559,"Moreno Valley","CA","USA",33.937517,-117.2305944,6065,NA,NA,NA,NA,NA,NA,NA,NA,NA,NA,NA,NA,NA,NA,NA,NA,NA,NA,NA
32611,NA,"HighSchool",2015,756,"Nekyle Lundie","Stephenson",NA,74,215,3,0.8553,"Tucker","GA","USA",33.8532701,-84.2200729,13089,NA,NA,NA,NA,NA,NA,NA,NA,NA,NA,NA,NA,NA,NA,NA,NA,NA,NA,NA
32621,3917292,"HighSchool",2015,766,"Justin Johnson","Hoover","Mississippi State",76,205,3,0.8549,"Hoover","AL","USA",33.3848933,-86.8070484,1073,NA,NA,NA,NA,NA,NA,NA,NA,NA,NA,NA,NA,NA,NA,NA,NA,NA,NA,NA
32622,-1020724,"HighSchool",2015,767,"Kaleel Gaines","Frostproof","Michigan State",72,175,3,0.8549,"Frostproof","FL","USA",27.7458626,-81.5306313,12105,NA,NA,NA,NA,NA,NA,NA,NA,NA,NA,NA,NA,NA,NA,NA,NA,NA,NA,NA
32626,3916203,"HighSchool",2015,771,"Kevin Thomas","DeSoto","SMU",74,180,3,0.8544,"DeSoto","TX","USA",32.6061241,-96.865612653687,48113,NA,NA,NA,NA,NA,NA,NA,NA,NA,NA,NA,NA,NA,NA,NA,NA,NA,NA,NA
32627,3916919,"HighSchool",2015,772,"Deon Stewart","Highland","Arkansas",73,165,3,0.8544,"Hardy","AR","USA",36.3158994,-91.4826388,5135,NA,NA,NA,NA,NA,NA,NA,NA,NA,NA,NA,NA,NA,NA,NA,NA,NA,NA,NA
32629,NA,"HighSchool",2015,774,"Scott Washington","St. John's College HS","Wake Forest",77,203,3,0.8544,"Washington","DC","USA",38.8949855,-77.0365708,11001,NA,NA,NA,NA,NA,NA,NA,NA,NA,NA,NA,NA,NA,NA,NA,NA,NA,NA,NA
32630,3917921,"HighSchool",2015,775,"David Eldridge","Kettle Run","Virginia",73,165,3,0.8544,"Nokesville","VA","USA",38.6984987,-77.5800445,51153,NA,NA,NA,NA,NA,NA,NA,NA,NA,NA,NA,NA,NA,NA,NA,NA,NA,NA,NA
32633,3722361,"HighSchool",2015,778,"Akilian Butler","West Mesquite","Boise State",71,172,3,0.8544,"Mesquite","TX","USA",32.7666103,-96.599472,48113,NA,NA,NA,NA,NA,NA,NA,NA,NA,NA,NA,NA,NA,NA,NA,NA,NA,NA,NA
32652,3672832,"HighSchool",2015,797,"Nolan Borgersen","Westwood","Boston College",73,185,3,0.8537,"Township Of Washington","NJ","USA",40.9884843,-74.0652437,34003,NA,NA,NA,NA,NA,NA,NA,NA,NA,NA,NA,NA,NA,NA,NA,NA,NA,NA,NA
32653,3912563,"HighSchool",2015,798,"Philip Afia","Ruben S. Ayala","Utah",74,190,3,0.8537,"Chino","CA","USA",34.0133561,-117.690075,6071,NA,NA,NA,NA,NA,NA,NA,NA,NA,NA,NA,NA,NA,NA,NA,NA,NA,NA,NA
32660,3915985,"HighSchool",2015,805,"Cameron Green","Adlai Stevenson","Northwestern",74,195,3,0.8534,"Lincolnshire","IL","USA",42.1900249,-87.9084039,17097,NA,NA,NA,NA,NA,NA,NA,NA,NA,NA,NA,NA,NA,NA,NA,NA,NA,NA,NA
32668,3914158,"HighSchool",2015,814,"Kahlil Lewis","Miramar","Cincinnati",71.5,179,3,0.8529,"Hollywood","FL","USA",26.0112014,-80.1494901,12011,NA,NA,NA,NA,NA,NA,NA,NA,NA,NA,NA,NA,NA,NA,NA,NA,NA,NA,NA
32669,3917789,"HighSchool",2015,815,"Aaron Young","Murrieta Valley","Duke",76,200,3,0.8529,"Murrieta","CA","USA",33.5777523999999,-117.188454202053,6065,NA,NA,NA,NA,NA,NA,NA,NA,NA,NA,NA,NA,NA,NA,NA,NA,NA,NA,NA
32670,-1005323,"HighSchool",2015,816,"Chase Pankey","Archbishop Moeller","Boston College",73,180,3,0.8528,"Cincinnati","OH","USA",39.1014537,-84.5124602,39061,NA,NA,NA,NA,NA,NA,NA,NA,NA,NA,NA,NA,NA,NA,NA,NA,NA,NA,NA
32671,3863893,"HighSchool",2015,817,"Kanawai Noa","Punahou","California",72,170,3,0.8528,"Honolulu","HI","USA",21.304547,-157.8556764,15003,NA,NA,NA,NA,NA,NA,NA,NA,NA,NA,NA,NA,NA,NA,NA,NA,NA,NA,NA
32678,3708008,"HighSchool",2015,824,"A.D. Miller","Bishop Dunne","Oklahoma",75,175,3,0.8524,"Dallas","TX","USA",32.7762719,-96.7968559,48113,NA,NA,NA,NA,NA,NA,NA,NA,NA,NA,NA,NA,NA,NA,NA,NA,NA,NA,NA
32698,3700890,"HighSchool",2015,844,"Tabari Hines","Marlboro County","Wake Forest",70,165,3,0.8513,"Florence","SC","USA",34.1984435,-79.7671658,45041,NA,NA,NA,NA,NA,NA,NA,NA,NA,NA,NA,NA,NA,NA,NA,NA,NA,NA,NA
32702,3682593,"HighSchool",2015,848,"Kalif Jackson","Duncan U. Fletcher","Florida",77,200,3,0.8513,"Neptune Beach","FL","USA",30.311908,-81.3964734,12031,NA,NA,NA,NA,NA,NA,NA,NA,NA,NA,NA,NA,NA,NA,NA,NA,NA,NA,NA
32708,-1025135,"HighSchool",2015,854,"Freddie Simmons","Bethlehem Catholic","NC State",75,175,3,0.8512,"Bethlehem","PA","USA",40.6178915,-75.3786521,42095,NA,NA,NA,NA,NA,NA,NA,NA,NA,NA,NA,NA,NA,NA,NA,NA,NA,NA,NA
32716,NA,"HighSchool",2015,862,"Quincy Watts","Landstown","Old Dominion",71,165,3,0.8507,"Virginia Beach","VA","USA",36.8529841,-75.9774183,51810,NA,NA,NA,NA,NA,NA,NA,NA,NA,NA,NA,NA,NA,NA,NA,NA,NA,NA,NA
32718,3864113,"HighSchool",2015,864,"Brandon Singleton","Hahnville","California",72,170,3,0.8505,"Boutte","LA","USA",29.8951685,-90.3894300729841,22089,NA,NA,NA,NA,NA,NA,NA,NA,NA,NA,NA,NA,NA,NA,NA,NA,NA,NA,NA
32719,3676833,"HighSchool",2015,865,"KaVontae Turpin","Neville","TCU",69,165,3,0.8504,"Monroe","LA","USA",32.5093109,-92.1193012,22073,273,"DAL",27,"WR",16,0,18,12,0.667,127,10.6,3,9,61.1,34,7.1,0.8,7.9,1
32723,3886809,"HighSchool",2015,869,"Andre Baccellia","Westlake","Washington",71,170,3,0.8503,"Thousand Oaks","CA","USA",34.17142715,-118.910587729744,6111,NA,NA,NA,NA,NA,NA,NA,NA,NA,NA,NA,NA,NA,NA,NA,NA,NA,NA,NA
32733,3929923,"HighSchool",2015,879,"Grant Perry","Brother Rice","Michigan",72,185,3,0.8503,"Bloomfield Hills","MI","USA",42.583645,-83.2454883,26125,NA,NA,NA,NA,NA,NA,NA,NA,NA,NA,NA,NA,NA,NA,NA,NA,NA,NA,NA
32736,3924318,"HighSchool",2015,882,"Emanuel Hall","Centennial","Missouri",74,190,3,0.8498,"Franklin","TN","USA",35.925193,-86.8689365,47187,NA,NA,NA,NA,NA,NA,NA,NA,NA,NA,NA,NA,NA,NA,NA,NA,NA,NA,NA
32743,4039284,"HighSchool",2015,889,"Terry Mark","Lufkin","Houston",74,185,3,0.8497,"Lufkin","TX","USA",31.3386242,-94.7288558,48005,NA,NA,NA,NA,NA,NA,NA,NA,NA,NA,NA,NA,NA,NA,NA,NA,NA,NA,NA
32786,3915251,"HighSchool",2015,932,"Tavin Richardson","Byrnes","Kentucky",75,200,3,0.8479,"Duncan","SC","USA",34.9378962,-82.1451096,45083,NA,NA,NA,NA,NA,NA,NA,NA,NA,NA,NA,NA,NA,NA,NA,NA,NA,NA,NA
32787,NA,"HighSchool",2015,934,"Dexter Carter Jr.","The Bolles School",NA,71,175,3,0.8478,"Jacksonville","FL","USA",30.3321838,-81.655651,12031,NA,NA,NA,NA,NA,NA,NA,NA,NA,NA,NA,NA,NA,NA,NA,NA,NA,NA,NA
32792,3915432,"HighSchool",2015,939,"Justin Jan","Chandler","Colorado",75,190,3,0.8478,"Chandler","AZ","USA",33.3062223,-111.8413317,4013,NA,NA,NA,NA,NA,NA,NA,NA,NA,NA,NA,NA,NA,NA,NA,NA,NA,NA,NA
32801,-1012542,"HighSchool",2015,948,"Harland Howell","Wheeler","Georgia Tech",75,200,3,0.8476,"Marietta","GA","USA",33.9528472,-84.5496148,13067,NA,NA,NA,NA,NA,NA,NA,NA,NA,NA,NA,NA,NA,NA,NA,NA,NA,NA,NA
32828,3914182,"HighSchool",2015,975,"Deondre Farrier","Lake Nona","East Carolina",72,173,3,0.8463,"Orlando","FL","USA",28.5421109,-81.3790304,12095,NA,NA,NA,NA,NA,NA,NA,NA,NA,NA,NA,NA,NA,NA,NA,NA,NA,NA,NA
32841,NA,"HighSchool",2015,988,"Cameron Stewart","Shiloh","UCF",75,185,3,0.8459,"Snellville","GA","USA",33.857328,-84.0199108,13135,NA,NA,NA,NA,NA,NA,NA,NA,NA,NA,NA,NA,NA,NA,NA,NA,NA,NA,NA
32844,-1006166,"HighSchool",2015,991,"Greyson Bankhead","Centennial","California",70,160,3,0.8458,"Corona","CA","USA",33.8752945,-117.5664449,6065,NA,NA,NA,NA,NA,NA,NA,NA,NA,NA,NA,NA,NA,NA,NA,NA,NA,NA,NA
32848,3884173,"HighSchool",2015,995,"Kyle Sweet","Santa Margarita Catholic","Washington State",72,175,3,0.8457,"Rancho Santa Margarita","CA","USA",33.6408845,-117.6029341,6059,NA,NA,NA,NA,NA,NA,NA,NA,NA,NA,NA,NA,NA,NA,NA,NA,NA,NA,NA
32858,3917580,"HighSchool",2015,1005,"Keenan Barnes","Madison Central","Louisiana",76,185,3,0.8456,"Madison","MS","USA",32.4618086,-90.1153638,28089,NA,NA,NA,NA,NA,NA,NA,NA,NA,NA,NA,NA,NA,NA,NA,NA,NA,NA,NA
32859,3917833,"HighSchool",2015,1006,"Brad Stewart","Benedictine Military School","Georgia Tech",74,180,3,0.8455,"Savannah","GA","USA",32.0809263,-81.0911768,13051,NA,NA,NA,NA,NA,NA,NA,NA,NA,NA,NA,NA,NA,NA,NA,NA,NA,NA,NA
32862,3910545,"HighSchool",2015,1009,"Brandyn Lee","Chaminade",NA,73,175,3,0.8453,"West Hills","CA","USA",34.2032325,-118.645476,6037,NA,NA,NA,NA,NA,NA,NA,NA,NA,NA,NA,NA,NA,NA,NA,NA,NA,NA,NA
32878,3915988,"HighSchool",2015,1024,"Charlie Fessler","Cathedral Prep","Northwestern",76,195,3,0.8447,"Erie","PA","USA",42.1294712,-80.0852695,42049,NA,NA,NA,NA,NA,NA,NA,NA,NA,NA,NA,NA,NA,NA,NA,NA,NA,NA,NA
32884,NA,"HighSchool",2015,1030,"Jaquel Gant","Donaldsonville",NA,73,190,3,0.8444,"Donaldsonville","LA","USA",30.1010324,-90.9928774,22005,NA,NA,NA,NA,NA,NA,NA,NA,NA,NA,NA,NA,NA,NA,NA,NA,NA,NA,NA
32894,3894828,"HighSchool",2015,1040,"Jerminic Smith","South Garland","Iowa",73,175,3,0.844,"Garland","TX","USA",32.912624,-96.6388833,48113,NA,NA,NA,NA,NA,NA,NA,NA,NA,NA,NA,NA,NA,NA,NA,NA,NA,NA,NA
32911,3923434,"HighSchool",2015,1057,"Rickey Preston","Hahnville","Tulane",73,174,3,0.8432,"Boutte","LA","USA",29.8951685,-90.3894300729841,22089,NA,NA,NA,NA,NA,NA,NA,NA,NA,NA,NA,NA,NA,NA,NA,NA,NA,NA,NA
32916,-1016130,"HighSchool",2015,1062,"Therrell Gosier","Blanche Ely","Kentucky",78,200,3,0.8431,"Pompano Beach","FL","USA",26.2378597,-80.1247667,12011,NA,NA,NA,NA,NA,NA,NA,NA,NA,NA,NA,NA,NA,NA,NA,NA,NA,NA,NA
32918,3924331,"HighSchool",2015,1064,"Justin Smith","West Laurens","Missouri",79,220,3,0.8431,"Dublin","GA","USA",32.5404447,-82.903754,13175,NA,NA,NA,NA,NA,NA,NA,NA,NA,NA,NA,NA,NA,NA,NA,NA,NA,NA,NA
32924,-1042671,"HighSchool",2015,1070,"Jacquez Adams","Franklin","West Virginia",71,165,3,0.8428,"Reisterstown","MD","USA",39.4695489,-76.8294213,24005,NA,NA,NA,NA,NA,NA,NA,NA,NA,NA,NA,NA,NA,NA,NA,NA,NA,NA,NA
32927,3916418,"HighSchool",2015,1073,"Jaylen Smith","Pascagoula","Louisville",73.5,196,3,0.8426,"Pascagoula","MS","USA",30.3646795,-88.5585995,28059,NA,NA,NA,NA,NA,NA,NA,NA,NA,NA,NA,NA,NA,NA,NA,NA,NA,NA,NA
32933,NA,"HighSchool",2015,1079,"Trevill Holcy","St. Cloud",NA,77,210,3,0.8424,"Saint Cloud","FL","USA",28.2498534,-81.2839038,12097,NA,NA,NA,NA,NA,NA,NA,NA,NA,NA,NA,NA,NA,NA,NA,NA,NA,NA,NA
32936,3918321,"HighSchool",2015,1082,"Justice Murphy","Evergreen","Wyoming",73,185,3,0.8422,"Vancouver","WA","USA",45.6306954,-122.6744557,53011,NA,NA,NA,NA,NA,NA,NA,NA,NA,NA,NA,NA,NA,NA,NA,NA,NA,NA,NA
32937,NA,"HighSchool",2015,1083,"Almonzo Brown","North Gwinnett",NA,74,214,3,0.8422,"Suwanee","GA","USA",34.0514898,-84.0712997,13135,NA,NA,NA,NA,NA,NA,NA,NA,NA,NA,NA,NA,NA,NA,NA,NA,NA,NA,NA
32943,3924314,"HighSchool",2015,1089,"Richaud Floyd","Gulfport","Missouri",70,165,3,0.8419,"Gulfport","MS","USA",30.3674198,-89.0928155,28047,NA,NA,NA,NA,NA,NA,NA,NA,NA,NA,NA,NA,NA,NA,NA,NA,NA,NA,NA
32961,NA,"HighSchool",2015,1107,"Deundre Pickett-White","Southwest Miami","Alcorn State",72,190,3,0.8412,"Miami","FL","USA",25.7742658,-80.1936589,12086,NA,NA,NA,NA,NA,NA,NA,NA,NA,NA,NA,NA,NA,NA,NA,NA,NA,NA,NA
32969,-1031996,"HighSchool",2015,1115,"Jerad Washington","First Coast","South Carolina",69,165,3,0.8412,"Ponte Vedra Beach","FL","USA",30.2396865,-81.3856384,12109,NA,NA,NA,NA,NA,NA,NA,NA,NA,NA,NA,NA,NA,NA,NA,NA,NA,NA,NA
32975,3916129,"HighSchool",2015,1121,"Isaiah Zuber","Stephenson","Kansas State",71,175,3,0.8406,"Stone Mountain","GA","USA",33.8080924,-84.1706273,13089,NA,NA,NA,NA,NA,NA,NA,NA,NA,NA,NA,NA,NA,NA,NA,NA,NA,NA,NA
33006,-1025106,"HighSchool",2015,1156,"Brian Sessoms","Carver","NC State",68,170,3,0.8397,"Winston Salem","NC","USA",36.0998131,-80.2440518,37067,NA,NA,NA,NA,NA,NA,NA,NA,NA,NA,NA,NA,NA,NA,NA,NA,NA,NA,NA
33011,3916721,"HighSchool",2015,1161,"LeVante Bellamy","Brebeuf Jesuit Preparatory School","Western Michigan",69,165,3,0.8395,"Indianapolis","IN","USA",39.7683331,-86.1583502,18097,NA,NA,NA,NA,NA,NA,NA,NA,NA,NA,NA,NA,NA,NA,NA,NA,NA,NA,NA
33037,3916071,"HighSchool",2015,1178,"Gary Jennings","Colonial Forge","West Virginia",74,205,3,0.8388,"Stafford","VA","USA",38.4222681,-77.4084067,51179,NA,NA,NA,NA,NA,NA,NA,NA,NA,NA,NA,NA,NA,NA,NA,NA,NA,NA,NA
33040,3912613,"HighSchool",2015,1181,"Sean Harper","Hart County","Washington State",73,170,3,0.8388,"Hartwell","GA","USA",34.3528825,-82.932087,13147,NA,NA,NA,NA,NA,NA,NA,NA,NA,NA,NA,NA,NA,NA,NA,NA,NA,NA,NA
33033,NA,"HighSchool",2015,1183,"Abu Daramy","Westerville South","Yale",70,170,3,0.8388,"Westerville","OH","USA",40.126139,-82.9295287,39049,NA,NA,NA,NA,NA,NA,NA,NA,NA,NA,NA,NA,NA,NA,NA,NA,NA,NA,NA
33035,3917577,"HighSchool",2015,1185,"Gary Haynes","Manvel","Louisiana",68,157,3,0.8388,"Manvel","TX","USA",29.4664706,-95.355714,48039,NA,NA,NA,NA,NA,NA,NA,NA,NA,NA,NA,NA,NA,NA,NA,NA,NA,NA,NA
66950,3916071,"HighSchool",2015,1187,"Gary Jennings Jr.","Colonial Forge","West Virginia",74,205,3,0.8388,"Stafford","VA","USA",38.4222681,-77.4084067,51179,NA,NA,NA,NA,NA,NA,NA,NA,NA,NA,NA,NA,NA,NA,NA,NA,NA,NA,NA
66951,3912613,"HighSchool",2015,1190,"Sean Harper Jr.","Hart County","Washington State",73,170,3,0.8388,"Hartwell","GA","USA",34.3528825,-82.932087,13147,NA,NA,NA,NA,NA,NA,NA,NA,NA,NA,NA,NA,NA,NA,NA,NA,NA,NA,NA
33049,3728282,"HighSchool",2015,1199,"Hunter Register","O. Comeaux","Minnesota",77,200,3,0.8385,"Lafayette","LA","USA",30.2240897,-92.0198427,22055,NA,NA,NA,NA,NA,NA,NA,NA,NA,NA,NA,NA,NA,NA,NA,NA,NA,NA,NA
33058,NA,"HighSchool",2015,1208,"Michael Little","Notre Dame","Purdue",73,175,3,0.8381,"Sherman Oaks","CA","USA",34.1508718,-118.4489865,6037,NA,NA,NA,NA,NA,NA,NA,NA,NA,NA,NA,NA,NA,NA,NA,NA,NA,NA,NA
33075,4036771,"HighSchool",2015,1226,"Trevion Armstrong","Trinity Episcopal School","Nevada",76,215,3,0.8371,"Chesterfield","VA","USA",37.3770935,-77.5058196,51041,NA,NA,NA,NA,NA,NA,NA,NA,NA,NA,NA,NA,NA,NA,NA,NA,NA,NA,NA
34543,-1016114,"HighSchool",2015,1229,"Marvin Robinson","Stranahan",NA,76,175,3,0.8368,"Fort Lauderdale","FL","USA",26.1223084,-80.1433786,12011,NA,NA,NA,NA,NA,NA,NA,NA,NA,NA,NA,NA,NA,NA,NA,NA,NA,NA,NA
33092,3912574,"HighSchool",2015,1244,"Caleb Repp","Los Osos","Utah",77,205,3,0.8362,"Rancho Cucamonga","CA","USA",34.1033192,-117.5751735,6071,NA,NA,NA,NA,NA,NA,NA,NA,NA,NA,NA,NA,NA,NA,NA,NA,NA,NA,NA
33093,NA,"HighSchool",2015,1245,"Darrell Adams","Foothill",NA,75,215,3,0.8362,"Pleasanton","CA","USA",37.6624312,-121.8746789,6001,NA,NA,NA,NA,NA,NA,NA,NA,NA,NA,NA,NA,NA,NA,NA,NA,NA,NA,NA
33107,NA,"HighSchool",2015,1248,"Malik Vaccaro-Dixon","Port Charlotte","South Florida",75,185,3,0.8354,"Port Charlotte","FL","USA",26.9761707,-82.0906448,12015,NA,NA,NA,NA,NA,NA,NA,NA,NA,NA,NA,NA,NA,NA,NA,NA,NA,NA,NA
33104,-1014613,"HighSchool",2015,1256,"Denver Johnson","Casady School","Iowa State",74.5,212,3,0.8356,"Oklahoma City","OK","USA",35.4729886,-97.5170536,40109,NA,NA,NA,NA,NA,NA,NA,NA,NA,NA,NA,NA,NA,NA,NA,NA,NA,NA,NA
66953,NA,"HighSchool",2015,1258,"Malik Dixon","Port Charlotte","South Florida",75,185,3,0.8354,"Thatcher","AZ","USA",32.8492323,-109.7592479,4009,NA,NA,NA,NA,NA,NA,NA,NA,NA,NA,NA,NA,NA,NA,NA,NA,NA,NA,NA
33113,-1030281,"HighSchool",2015,1264,"Rashad Blunt","Creekside","Rutgers",74,190,3,0.8351,"Saint Augustine","FL","USA",29.8946952,-81.3145395,12109,NA,NA,NA,NA,NA,NA,NA,NA,NA,NA,NA,NA,NA,NA,NA,NA,NA,NA,NA
33132,3929785,"HighSchool",2015,1283,"Nick Westbrook","Lake Mary","Indiana",75,205,3,0.8346,"Lake Mary","FL","USA",28.756618,-81.3388838221416,12117,NA,NA,NA,NA,NA,NA,NA,NA,NA,NA,NA,NA,NA,NA,NA,NA,NA,NA,NA
33143,3930097,"HighSchool",2015,1294,"Farrod Green","Wesson Attendance Center","Mississippi State",76,223,3,0.8341,"Wesson","MS","USA",31.701277,-90.3975928,28029,NA,NA,NA,NA,NA,NA,NA,NA,NA,NA,NA,NA,NA,NA,NA,NA,NA,NA,NA
33145,3676478,"HighSchool",2015,1296,"Arico Evans","Hillcrest","TCU",73,190,3,0.8341,"Dallas","TX","USA",32.7762719,-96.7968559,48113,NA,NA,NA,NA,NA,NA,NA,NA,NA,NA,NA,NA,NA,NA,NA,NA,NA,NA,NA
66957,NA,"HighSchool",2015,1321,"Brenden Williams","Restoration Academy",NA,75,200,3,0.8333,"Fairfield","AL","USA",33.4859402,-86.9119366,1073,NA,NA,NA,NA,NA,NA,NA,NA,NA,NA,NA,NA,NA,NA,NA,NA,NA,NA,NA
66962,NA,"HighSchool",2015,1329,"Donte Sylencieux","Boynton Beach Community",NA,73,160,3,0.8333,"Boynton Beach","FL","USA",26.5256179,-80.0666026,12099,NA,NA,NA,NA,NA,NA,NA,NA,NA,NA,NA,NA,NA,NA,NA,NA,NA,NA,NA
66968,3910415,"HighSchool",2015,1335,"Damian King","Indian Rocks Christian School","Liberty",70,170,3,0.8333,"Largo","FL","USA",27.9094665,-82.7873244,12103,NA,NA,NA,NA,NA,NA,NA,NA,NA,NA,NA,NA,NA,NA,NA,NA,NA,NA,NA
33166,3911816,"HighSchool",2015,1337,"Adonus Lee","Westwood",NA,76,180,3,0.8333,"Blythewood","SC","USA",34.2187005,-80.9845691801123,45079,NA,NA,NA,NA,NA,NA,NA,NA,NA,NA,NA,NA,NA,NA,NA,NA,NA,NA,NA
66973,NA,"HighSchool",2015,1342,"Thomas Clay","University Senior",NA,71,175,3,0.8333,"Los Angeles","CA","USA",34.0536909,-118.2427666,6037,NA,NA,NA,NA,NA,NA,NA,NA,NA,NA,NA,NA,NA,NA,NA,NA,NA,NA,NA
66976,NA,"HighSchool",2015,1345,"Malik Yoakum","Upland",NA,71,160,3,0.8333,"Upland","CA","USA",34.09751,-117.6483876,6071,NA,NA,NA,NA,NA,NA,NA,NA,NA,NA,NA,NA,NA,NA,NA,NA,NA,NA,NA
33193,-1038919,"HighSchool",2015,1368,"Michael Bowman","Havelock",NA,72,195,3,0.8323,"Havelock","NC","USA",34.8785,-76.9014457,37049,NA,NA,NA,NA,NA,NA,NA,NA,NA,NA,NA,NA,NA,NA,NA,NA,NA,NA,NA
33199,3895797,"HighSchool",2015,1374,"Tre Tipton","Apollo-Ridge","Pittsburgh",73,170,3,0.8321,"Spring Church","PA","USA",40.6061763,-79.4889318,42005,NA,NA,NA,NA,NA,NA,NA,NA,NA,NA,NA,NA,NA,NA,NA,NA,NA,NA,NA
33200,3916210,"HighSchool",2015,1375,"Xavier Castille","Rockwall","SMU",70.5,195,3,0.8321,"Rockwall","TX","USA",32.9312336,-96.4597089,48397,NA,NA,NA,NA,NA,NA,NA,NA,NA,NA,NA,NA,NA,NA,NA,NA,NA,NA,NA
33213,3915294,"HighSchool",2015,1388,"Mehdi El Attrach","Lake Nona","Boston College",72,190,3,0.8316,"Orlando","FL","USA",28.5421109,-81.3790304,12095,NA,NA,NA,NA,NA,NA,NA,NA,NA,NA,NA,NA,NA,NA,NA,NA,NA,NA,NA
33219,NA,"HighSchool",2015,1395,"Savon Rollison","Skyline","New Mexico",69,179,3,0.8314,"Dallas","TX","USA",32.7762719,-96.7968559,48113,NA,NA,NA,NA,NA,NA,NA,NA,NA,NA,NA,NA,NA,NA,NA,NA,NA,NA,NA
33223,3917905,"HighSchool",2015,1399,"Warren Craft","William Fleming","Virginia",74,170,3,0.8313,"Roanoke","VA","USA",37.270973,-79.9414313,51770,NA,NA,NA,NA,NA,NA,NA,NA,NA,NA,NA,NA,NA,NA,NA,NA,NA,NA,NA
33226,3915406,"HighSchool",2015,1402,"Jahrvis Davenport","Robinson","Maryland",70,180,3,0.831,"Tampa","FL","USA",27.9477595,-82.458444,12057,NA,NA,NA,NA,NA,NA,NA,NA,NA,NA,NA,NA,NA,NA,NA,NA,NA,NA,NA
33231,3922139,"HighSchool",2015,1407,"Justin Gamble","Stony Point","Texas State",71,170,3,0.8308,"Round Rock","TX","USA",30.508235,-97.6788934,48491,NA,NA,NA,NA,NA,NA,NA,NA,NA,NA,NA,NA,NA,NA,NA,NA,NA,NA,NA
33238,3915803,"HighSchool",2015,1414,"Quin Jernighan","LaVergne","Western Kentucky",74.5,194,3,0.8304,"LaVergne","TN","USA",41.8361431,-87.782001,17031,NA,NA,NA,NA,NA,NA,NA,NA,NA,NA,NA,NA,NA,NA,NA,NA,NA,NA,NA
33239,-1043804,"HighSchool",2015,1415,"Andrew James","Westminster Academy","Wisconsin",70.5,162,3,0.8302,"Fort Lauderdale","FL","USA",26.1223084,-80.1433786,12011,NA,NA,NA,NA,NA,NA,NA,NA,NA,NA,NA,NA,NA,NA,NA,NA,NA,NA,NA
33242,-1043454,"HighSchool",2015,1418,"Kadeem Goulbourne","Cypress Bay","Western Michigan",76,200,3,0.83,"Fort Lauderdale","FL","USA",26.1223084,-80.1433786,12011,NA,NA,NA,NA,NA,NA,NA,NA,NA,NA,NA,NA,NA,NA,NA,NA,NA,NA,NA
33245,3915832,"HighSchool",2015,1422,"Quan Shorts","Atascocita","Texas Tech",73,195,3,0.8298,"Humble","TX","USA",29.9988312,-95.2621553,48201,NA,NA,NA,NA,NA,NA,NA,NA,NA,NA,NA,NA,NA,NA,NA,NA,NA,NA,NA
33254,NA,"HighSchool",2015,1431,"Latrell Nieves","Colleton County","Marshall",73,165,3,0.8295,"Walterboro","SC","USA",32.9021377,-80.6672631,45029,NA,NA,NA,NA,NA,NA,NA,NA,NA,NA,NA,NA,NA,NA,NA,NA,NA,NA,NA
33256,3915836,"HighSchool",2015,1433,"Donta Thompson","Ennis","Texas Tech",76,205,3,0.8294,"Ennis","TX","USA",32.3293111,-96.6252679,48139,NA,NA,NA,NA,NA,NA,NA,NA,NA,NA,NA,NA,NA,NA,NA,NA,NA,NA,NA
33259,3915321,"HighSchool",2015,1436,"James Gardner","Fort Lauderdale","Miami (OH)",76,190,3,0.8294,"Fort Lauderdale","FL","USA",26.1223084,-80.1433786,12011,NA,NA,NA,NA,NA,NA,NA,NA,NA,NA,NA,NA,NA,NA,NA,NA,NA,NA,NA
33268,-1030337,"HighSchool",2015,1445,"Dontae Owens","Reading","Rutgers",72,180,3,0.8288,"Reading","PA","USA",40.335345,-75.9279495,42011,NA,NA,NA,NA,NA,NA,NA,NA,NA,NA,NA,NA,NA,NA,NA,NA,NA,NA,NA
33273,3923389,"HighSchool",2015,1450,"Jordan Reed","Plant","South Florida",69,168,3,0.8288,"Tampa","FL","USA",27.9477595,-82.458444,12057,NA,NA,NA,NA,NA,NA,NA,NA,NA,NA,NA,NA,NA,NA,NA,NA,NA,NA,NA
33276,3915772,"HighSchool",2015,1454,"Jared Pinkney","Norcross","Vanderbilt",77,224,3,0.8286,"Norcross","GA","USA",33.9412127,-84.2135309,13135,NA,NA,NA,NA,NA,NA,NA,NA,NA,NA,NA,NA,NA,NA,NA,NA,NA,NA,NA
33289,NA,"HighSchool",2015,1467,"Tremaine Dillard","Lovejoy","Jacksonville State",74,180,3,0.828,"Hampton","GA","USA",33.3870578,-84.2829784,13151,NA,NA,NA,NA,NA,NA,NA,NA,NA,NA,NA,NA,NA,NA,NA,NA,NA,NA,NA
33299,3916428,"HighSchool",2015,1477,"Vernon Grier","Mallard Creek","NC State",71,175,3,0.8271,"Charlotte","NC","USA",35.2272,-80.843083,37119,NA,NA,NA,NA,NA,NA,NA,NA,NA,NA,NA,NA,NA,NA,NA,NA,NA,NA,NA
33304,NA,"HighSchool",2015,1482,"Darrell Clark","Warren Easton","Arizona",70,175,3,0.8269,"New Orleans","LA","USA",29.9499323,-90.0701156,22071,NA,NA,NA,NA,NA,NA,NA,NA,NA,NA,NA,NA,NA,NA,NA,NA,NA,NA,NA
33330,3917077,"HighSchool",2015,1508,"Braylin Scott","Liberty","Colorado State",75,175,3,0.8255,"Bakersfield","CA","USA",35.3738712,-119.0194639,6029,NA,NA,NA,NA,NA,NA,NA,NA,NA,NA,NA,NA,NA,NA,NA,NA,NA,NA,NA
33331,NA,"HighSchool",2015,1509,"Raphael Leonard","Starkville","Florida Atlantic",73,190,3,0.8255,"Starkville","MS","USA",33.4503998,-88.8183872,28105,NA,NA,NA,NA,NA,NA,NA,NA,NA,NA,NA,NA,NA,NA,NA,NA,NA,NA,NA
33337,-1031385,"HighSchool",2015,1515,"Colin Baker","Vista Murrieta","San José State",73,172,3,0.8254,"Murrieta","CA","USA",33.5777523999999,-117.188454202053,6065,NA,NA,NA,NA,NA,NA,NA,NA,NA,NA,NA,NA,NA,NA,NA,NA,NA,NA,NA
33341,3917168,"HighSchool",2015,1519,"Darveon Brown","Warren","Arkansas State",70,175,3,0.8253,"Warren","AR","USA",33.6126086,-92.0645831,5011,NA,NA,NA,NA,NA,NA,NA,NA,NA,NA,NA,NA,NA,NA,NA,NA,NA,NA,NA
33342,3914476,"HighSchool",2015,1520,"D'Aundrey Bradley","Cedar Hill","North Texas",73,175,3,0.8252,"Dallas","TX","USA",32.7762719,-96.7968559,48113,NA,NA,NA,NA,NA,NA,NA,NA,NA,NA,NA,NA,NA,NA,NA,NA,NA,NA,NA
33349,-1009435,"HighSchool",2015,1527,"Kezio Snelling","Steinbrenner","Eastern Michigan",73,175,3,0.8247,"Lutz","FL","USA",28.1511243,-82.4614831,12057,NA,NA,NA,NA,NA,NA,NA,NA,NA,NA,NA,NA,NA,NA,NA,NA,NA,NA,NA
33350,NA,"HighSchool",2015,1528,"Wayne Jackson","Summit",NA,75,210,3,0.8247,"Fontana","CA","USA",34.0922335,-117.435048,6071,NA,NA,NA,NA,NA,NA,NA,NA,NA,NA,NA,NA,NA,NA,NA,NA,NA,NA,NA
33357,NA,"HighSchool",2015,1535,"Larry Dunnon","Palm Beach Central","Marshall",76,205,3,0.824,"Lake Worth","FL","USA",26.615891,-80.0691435,12099,NA,NA,NA,NA,NA,NA,NA,NA,NA,NA,NA,NA,NA,NA,NA,NA,NA,NA,NA
33361,3880416,"HighSchool",2015,1539,"Chase Harrell","Hargrave","Kansas",76,205,3,0.8239,"Huffman","TX","USA",30.0271626,-95.0857627,48201,NA,NA,NA,NA,NA,NA,NA,NA,NA,NA,NA,NA,NA,NA,NA,NA,NA,NA,NA
33374,3929786,"HighSchool",2015,1553,"Donavan Hale","Largo","Indiana",76,205,3,0.8228,"Largo","FL","USA",27.9094665,-82.7873244,12103,NA,NA,NA,NA,NA,NA,NA,NA,NA,NA,NA,NA,NA,NA,NA,NA,NA,NA,NA
33379,3914305,"HighSchool",2015,1558,"Anthony Jones","Miami Central","Florida International",72,185,3,0.8226,"Miami","FL","USA",25.7742658,-80.1936589,12086,NA,NA,NA,NA,NA,NA,NA,NA,NA,NA,NA,NA,NA,NA,NA,NA,NA,NA,NA
33382,3917963,"HighSchool",2015,1561,"Emmanuel Moore","Northwest","Kansas",72,185,3,0.8225,"Justin","TX","USA",33.0848442,-97.2961286,48121,NA,NA,NA,NA,NA,NA,NA,NA,NA,NA,NA,NA,NA,NA,NA,NA,NA,NA,NA
33411,3929054,"HighSchool",2015,1590,"D'erren Wilson","Greenville","UCF",75,187,3,0.8214,"Greenville","TX","USA",33.1384488,-96.1108066,48231,NA,NA,NA,NA,NA,NA,NA,NA,NA,NA,NA,NA,NA,NA,NA,NA,NA,NA,NA
33412,3917201,"HighSchool",2015,1591,"D'Ondre Glenn","Douglas County","Georgia Southern",77,205,3,0.8214,"Douglasville","GA","USA",33.7514966,-84.7477136,13097,NA,NA,NA,NA,NA,NA,NA,NA,NA,NA,NA,NA,NA,NA,NA,NA,NA,NA,NA
33438,3910215,"HighSchool",2015,1617,"DaShawn Davis","Chapman Hi","Presbyterian College",69,155,3,0.8199,"Inman","SC","USA",35.0470617,-82.0901088,45083,NA,NA,NA,NA,NA,NA,NA,NA,NA,NA,NA,NA,NA,NA,NA,NA,NA,NA,NA
33442,3918318,"HighSchool",2015,1621,"C.J. Johnson","Bellevue West","Wyoming",73,180,3,0.8198,"Bellevue","NE","USA",41.1366494,-95.8907373,31153,NA,NA,NA,NA,NA,NA,NA,NA,NA,NA,NA,NA,NA,NA,NA,NA,NA,NA,NA
33467,3915984,"HighSchool",2015,1646,"Jelani Roberts","Gilman","Northwestern",68,153,3,0.8183,"Baltimore","MD","USA",39.2908816,-76.610759,24510,NA,NA,NA,NA,NA,NA,NA,NA,NA,NA,NA,NA,NA,NA,NA,NA,NA,NA,NA
33476,-1025848,"HighSchool",2015,1655,"Steven Lee","Centennial","Northern Illinois",75,215,3,0.8177,"Champaign","IL","USA",40.1164205,-88.2433829,17019,NA,NA,NA,NA,NA,NA,NA,NA,NA,NA,NA,NA,NA,NA,NA,NA,NA,NA,NA
33488,-1014304,"HighSchool",2015,1667,"Emmanuel Ogwo","Horn","Iowa",72,170,3,0.817,"Mesquite","TX","USA",32.7666103,-96.599472,48113,NA,NA,NA,NA,NA,NA,NA,NA,NA,NA,NA,NA,NA,NA,NA,NA,NA,NA,NA
33493,3919105,"HighSchool",2015,1672,"Tavaris Harrison","North Miami","Florida Atlantic",75,170,3,0.8168,"Miami","FL","USA",25.7742658,-80.1936589,12086,NA,NA,NA,NA,NA,NA,NA,NA,NA,NA,NA,NA,NA,NA,NA,NA,NA,NA,NA
33500,3932339,"HighSchool",2015,1680,"Akile Davis","DeSoto","BYU",73,186,3,0.8163,"DeSoto","TX","USA",32.6061241,-96.865612653687,48113,NA,NA,NA,NA,NA,NA,NA,NA,NA,NA,NA,NA,NA,NA,NA,NA,NA,NA,NA
33504,NA,"HighSchool",2015,1684,"Jordan Herrera","Killian",NA,70,160,3,0.8159,"Miami","FL","USA",25.7742658,-80.1936589,12086,NA,NA,NA,NA,NA,NA,NA,NA,NA,NA,NA,NA,NA,NA,NA,NA,NA,NA,NA
33511,-1033914,"HighSchool",2015,1691,"Patrick Anderson","Aliquippa","Temple",75,220,3,0.8155,"Aliquippa","PA","USA",40.6102386,-80.267726,42007,NA,NA,NA,NA,NA,NA,NA,NA,NA,NA,NA,NA,NA,NA,NA,NA,NA,NA,NA
33517,NA,"HighSchool",2015,1697,"Markeyvious Adams","Greenwood","Appalachian State",76,185,3,0.8154,"Greenwood","SC","USA",34.1954001,-82.1617883,45047,NA,NA,NA,NA,NA,NA,NA,NA,NA,NA,NA,NA,NA,NA,NA,NA,NA,NA,NA
33519,-1009072,"HighSchool",2015,1699,"Justin Strozier","Woodland","East Carolina",72,175,3,0.8153,"Stockbridge","GA","USA",33.5442781,-84.2338093,13151,NA,NA,NA,NA,NA,NA,NA,NA,NA,NA,NA,NA,NA,NA,NA,NA,NA,NA,NA
33528,3894850,"HighSchool",2015,1709,"Adrian Falconer","Leesburg","Iowa",73,189,3,0.8144,"Leesburg","FL","USA",28.810823,-81.8778582,12069,NA,NA,NA,NA,NA,NA,NA,NA,NA,NA,NA,NA,NA,NA,NA,NA,NA,NA,NA
33533,3915975,"HighSchool",2015,1714,"Steven Reese","Buford","Northwestern",74,185,3,0.8142,"Buford","GA","USA",34.1206564,-84.0043513,13135,NA,NA,NA,NA,NA,NA,NA,NA,NA,NA,NA,NA,NA,NA,NA,NA,NA,NA,NA
33541,NA,"HighSchool",2015,1722,"Tre Hamilton","Atascocita","Memphis",75,191,3,0.8138,"Humble","TX","USA",29.9988312,-95.2621553,48201,NA,NA,NA,NA,NA,NA,NA,NA,NA,NA,NA,NA,NA,NA,NA,NA,NA,NA,NA
33551,3917166,"HighSchool",2015,1732,"Omar Bayless","Laurel","Arkansas State",75,190,3,0.8132,"Laurel","MS","USA",31.74096,-89.1338200361911,28067,NA,NA,NA,NA,NA,NA,NA,NA,NA,NA,NA,NA,NA,NA,NA,NA,NA,NA,NA
33558,NA,"HighSchool",2015,1739,"Jake Smeltzer","Tesoro","Cal Poly",74,191,3,0.8127,"Rancho Santa Margarita","CA","USA",33.6408845,-117.6029341,6059,NA,NA,NA,NA,NA,NA,NA,NA,NA,NA,NA,NA,NA,NA,NA,NA,NA,NA,NA
33561,NA,"HighSchool",2015,1742,"JJ Koski","San Ramon Valley","Cal Poly",73,185,3,0.8125,"Danville","CA","USA",37.8215929,-121.9999606,6013,NA,NA,NA,NA,NA,NA,NA,NA,NA,NA,NA,NA,NA,NA,NA,NA,NA,NA,NA
33575,-1006992,"HighSchool",2015,1755,"Braxton Neal","Lakota West","Cincinnati",76,168,3,0.8118,"West Chester","OH","USA",39.3303357,-84.408275,39017,NA,NA,NA,NA,NA,NA,NA,NA,NA,NA,NA,NA,NA,NA,NA,NA,NA,NA,NA
33581,NA,"HighSchool",2015,1761,"Titus Ivory","Brandon",NA,76,185,3,0.8115,"Brandon","MS","USA",32.2731475,-89.9868058,28121,NA,NA,NA,NA,NA,NA,NA,NA,NA,NA,NA,NA,NA,NA,NA,NA,NA,NA,NA
33605,NA,"HighSchool",2015,1789,"Jonathan Thomas","Lovett School","Elon",73,185,3,0.8106,"Atlanta","GA","USA",33.7490987,-84.3901849,13121,NA,NA,NA,NA,NA,NA,NA,NA,NA,NA,NA,NA,NA,NA,NA,NA,NA,NA,NA
33625,-1007053,"HighSchool",2015,1811,"Trevon Story","Glenville","Cincinnati",69,165,3,0.8098,"Cleveland","OH","USA",41.5051613,-81.6934446,39035,NA,NA,NA,NA,NA,NA,NA,NA,NA,NA,NA,NA,NA,NA,NA,NA,NA,NA,NA
33671,-1008478,"HighSchool",2015,1858,"Frank Battle","Belen Jesuit Prep","Connecticut",77,180,3,0.8074,"Miami","FL","USA",25.7742658,-80.1936589,12086,NA,NA,NA,NA,NA,NA,NA,NA,NA,NA,NA,NA,NA,NA,NA,NA,NA,NA,NA
33674,3915261,"HighSchool",2015,1861,"Antwan Dixon","South Fort Myers","Kent State",67,160,3,0.8073,"Fort Myers","FL","USA",26.640628,-81.8723084,12071,NA,NA,NA,NA,NA,NA,NA,NA,NA,NA,NA,NA,NA,NA,NA,NA,NA,NA,NA
33678,3915171,"HighSchool",2015,1865,"Tae Crowder","Harris County","Georgia",75,220,3,0.8072,"Hamilton","GA","USA",32.7579107,-84.8749311,13145,NA,NA,NA,NA,NA,NA,NA,NA,NA,NA,NA,NA,NA,NA,NA,NA,NA,NA,NA
33681,3917067,"HighSchool",2015,1868,"Olabisi Johnson","Bear Creek","Colorado State",72,180,3,0.8072,"Denver","CO","USA",39.7392364,-104.9848623,8031,NA,NA,NA,NA,NA,NA,NA,NA,NA,NA,NA,NA,NA,NA,NA,NA,NA,NA,NA
33683,3728274,"HighSchool",2015,1870,"Rashad Still","Andress","Minnesota",77,200,3,0.807,"El Paso","TX","USA",31.7754152,-106.4646348,48141,NA,NA,NA,NA,NA,NA,NA,NA,NA,NA,NA,NA,NA,NA,NA,NA,NA,NA,NA
33686,-1031072,"HighSchool",2015,1873,"Jack Bailey","Torrey Pines","San Diego State",74,185,3,0.8068,"Encinitas","CA","USA",33.0369867,-117.2919818,6073,NA,NA,NA,NA,NA,NA,NA,NA,NA,NA,NA,NA,NA,NA,NA,NA,NA,NA,NA
33711,2581897,"HighSchool",2015,1897,"Darius Williams","McDonogh 35","Tulane",73,165,3,0.8058,"New Orleans","LA","USA",29.9499323,-90.0701156,22071,NA,NA,NA,NA,NA,NA,NA,NA,NA,NA,NA,NA,NA,NA,NA,NA,NA,NA,NA
33717,NA,"HighSchool",2015,1903,"Korron Rozier","Coconut Creek",NA,70.5,182,3,0.8058,"Pompano Beach","FL","USA",26.2378597,-80.1247667,12011,NA,NA,NA,NA,NA,NA,NA,NA,NA,NA,NA,NA,NA,NA,NA,NA,NA,NA,NA
34889,3915575,"HighSchool",2015,1909,"Kelvin McKnight","Manatee","Samford",68,178,3,0.8054,"Bradenton","FL","USA",27.4989278,-82.5748194,12081,NA,NA,NA,NA,NA,NA,NA,NA,NA,NA,NA,NA,NA,NA,NA,NA,NA,NA,NA
33737,-1044146,"HighSchool",2015,1926,"Dameko Doddles","Douglass","Wyoming",74,185,3,0.8048,"Oklahoma City","OK","USA",35.4729886,-97.5170536,40109,NA,NA,NA,NA,NA,NA,NA,NA,NA,NA,NA,NA,NA,NA,NA,NA,NA,NA,NA
33745,3915316,"HighSchool",2015,1934,"Cedric Asseh","Grayson","Miami (OH)",74,180,3,0.8046,"Loganville","GA","USA",33.8389977,-83.9007382,13297,NA,NA,NA,NA,NA,NA,NA,NA,NA,NA,NA,NA,NA,NA,NA,NA,NA,NA,NA
33753,-1029445,"HighSchool",2015,1942,"Gentry Ivery","Mansfield Legacy","Pittsburgh",73,205,3,0.8039,"Mansfield","TX","USA",32.5631924,-97.1416768,48439,NA,NA,NA,NA,NA,NA,NA,NA,NA,NA,NA,NA,NA,NA,NA,NA,NA,NA,NA
33762,NA,"HighSchool",2015,1951,"Travis Amey","Tallahassee Leon",NA,71,160,3,0.8037,"Tallahassee","FL","USA",30.4380832,-84.2809332,12073,NA,NA,NA,NA,NA,NA,NA,NA,NA,NA,NA,NA,NA,NA,NA,NA,NA,NA,NA
33767,3919510,"HighSchool",2015,1956,"Alex Bachman","Oaks Christian","Wake Forest",71,175,3,0.8033,"Thousand Oaks","CA","USA",34.17142715,-118.910587729744,6111,NA,NA,NA,NA,NA,NA,NA,NA,NA,NA,NA,NA,NA,NA,NA,NA,NA,NA,NA
33770,3921681,"HighSchool",2015,1959,"Bailey Gaither","Paso Robles","San José State",73,172,3,0.8032,"Paso Robles","CA","USA",35.6267654,-120.6912456,6079,NA,NA,NA,NA,NA,NA,NA,NA,NA,NA,NA,NA,NA,NA,NA,NA,NA,NA,NA
33775,3914812,"HighSchool",2015,1964,"Dominic Christian","Hales Franciscan","Nevada",73,175,3,0.8032,"Chicago","IL","USA",41.8755616,-87.6244212,17031,NA,NA,NA,NA,NA,NA,NA,NA,NA,NA,NA,NA,NA,NA,NA,NA,NA,NA,NA
33778,3916577,"HighSchool",2015,1967,"Cameron Lewis","Voyageur Consortium","Buffalo",73,180,3,0.8031,"Detroit","MI","USA",42.3315509,-83.0466403,26163,NA,NA,NA,NA,NA,NA,NA,NA,NA,NA,NA,NA,NA,NA,NA,NA,NA,NA,NA
33792,NA,"HighSchool",2015,1981,"Adam Turner","Pinnacle",NA,75,175,3,0.8025,"Phoenix","AZ","USA",33.4484367,-112.0741417,4013,NA,NA,NA,NA,NA,NA,NA,NA,NA,NA,NA,NA,NA,NA,NA,NA,NA,NA,NA
33809,NA,"HighSchool",2015,1998,"Jesper Horsted","Roseville Area Senior","Princeton",76,195,3,0.8015,"Saint Paul","MN","USA",44.9504037,-93.1015026,27123,436,"LVR",26,"TE",13,0,1,1,1,4,4,0,0,100,4,4,0.1,0.3,0
33821,3917953,"HighSchool",2015,2011,"Carson Epps","Jenks","Iowa State",74,190,3,0.8009,"Jenks","OK","USA",36.0228734,-95.9683278,40143,NA,NA,NA,NA,NA,NA,NA,NA,NA,NA,NA,NA,NA,NA,NA,NA,NA,NA,NA
33824,3918031,"HighSchool",2015,2015,"Chad Artist","Logan","Utah State",74,172,3,0.8006,"Logan","UT","USA",41.7313447,-111.8348631,49005,NA,NA,NA,NA,NA,NA,NA,NA,NA,NA,NA,NA,NA,NA,NA,NA,NA,NA,NA
33836,3930038,"HighSchool",2015,2031,"Jawuan Harris","St. Thomas Aquinas","Rutgers",70,185,3,0.8002,"Fort Lauderdale","FL","USA",26.1223084,-80.1433786,12011,NA,NA,NA,NA,NA,NA,NA,NA,NA,NA,NA,NA,NA,NA,NA,NA,NA,NA,NA
33852,3912690,"HighSchool",2015,2049,"Amechie Walker","Harrisburg","New Hampshire",70,170,3,0.7998,"Harrisburg","PA","USA",40.2663107,-76.8861122,42043,NA,NA,NA,NA,NA,NA,NA,NA,NA,NA,NA,NA,NA,NA,NA,NA,NA,NA,NA
33856,NA,"HighSchool",2015,2055,"Jack Shoulders","Father Ryan","East Tennessee State",72,185,3,0.7998,"Nashville","TN","USA",36.1622296,-86.7743531,47037,NA,NA,NA,NA,NA,NA,NA,NA,NA,NA,NA,NA,NA,NA,NA,NA,NA,NA,NA
33865,NA,"HighSchool",2015,2065,"Akylen Mayfield","Edison",NA,74,193,3,0.7991,"Tulsa","OK","USA",36.1556805,-95.9929113,40143,NA,NA,NA,NA,NA,NA,NA,NA,NA,NA,NA,NA,NA,NA,NA,NA,NA,NA,NA
33874,3914577,"HighSchool",2015,2074,"Peyton Hall","Brandeis","UT San Antonio",71,180,3,0.799,"San Antonio","TX","USA",29.4246002,-98.4951405,48029,NA,NA,NA,NA,NA,NA,NA,NA,NA,NA,NA,NA,NA,NA,NA,NA,NA,NA,NA
33883,3923415,"HighSchool",2015,2083,"Cortrelle Simpson","Henry E. Lackey","Temple",70,175,3,0.7984,"Indian Head","MD","USA",38.6005785,-77.1622733,24017,NA,NA,NA,NA,NA,NA,NA,NA,NA,NA,NA,NA,NA,NA,NA,NA,NA,NA,NA
33949,NA,"HighSchool",2015,2090,"Scotty Miller","Barrington","Bowling Green",70,170,2,0.7954,"Barrington","IL","USA",42.1539141,-88.1361888,17031,NA,NA,NA,NA,NA,NA,NA,NA,NA,NA,NA,NA,NA,NA,NA,NA,NA,NA,NA
33902,3917579,"HighSchool",2015,2100,"Jarrod Jackson","East St. John","Louisiana",73,180,3,0.7978,"Reserve","LA","USA",30.0538131,-90.5517534,20013,NA,NA,NA,NA,NA,NA,NA,NA,NA,NA,NA,NA,NA,NA,NA,NA,NA,NA,NA
33904,-1025484,"HighSchool",2015,2102,"Rodney Bendy","John Tyler","North Texas",76,190,3,0.7977,"Tyler","TX","USA",32.3512601,-95.3010624,48423,NA,NA,NA,NA,NA,NA,NA,NA,NA,NA,NA,NA,NA,NA,NA,NA,NA,NA,NA
33906,3917960,"HighSchool",2015,2104,"Steven Sims Jr.","Fort Bend Travis","Kansas",70,165,3,0.7973,"Richmond","TX","USA",29.5821811,-95.7607832,48157,NA,NA,NA,NA,NA,NA,NA,NA,NA,NA,NA,NA,NA,NA,NA,NA,NA,NA,NA
33919,3920863,"HighSchool",2015,2117,"Richie Cooper","Hallandale","Akron",71,178,2,0.7965,"Hallandale","FL","USA",25.9856005999999,-80.1399967146433,12011,NA,NA,NA,NA,NA,NA,NA,NA,NA,NA,NA,NA,NA,NA,NA,NA,NA,NA,NA
33926,3917182,"HighSchool",2015,2125,"Jaylon Marshall","Warren","Arkansas State",73,175,2,0.7961,"Warren","AR","USA",33.6126086,-92.0645831,5011,NA,NA,NA,NA,NA,NA,NA,NA,NA,NA,NA,NA,NA,NA,NA,NA,NA,NA,NA
33928,4241723,"HighSchool",2015,2141,"Damion Willis","Southeast Lauderdale",NA,75,180,2,0.7958,"Meridian","MS","USA",32.3643098,-88.703656,28075,NA,NA,NA,NA,NA,NA,NA,NA,NA,NA,NA,NA,NA,NA,NA,NA,NA,NA,NA
66986,3914397,"HighSchool",2015,2149,"Scott Miller","Barrington","Bowling Green",70,170,2,0.7954,"Barrington","IL","USA",42.1539141,-88.1361888,17031,281,"ATL",26,"WR",17,0,16,11,0.688,161,14.6,2,6,50,56,10.1,0.6,9.5,0
33950,NA,"HighSchool",2015,2150,"Alvin Harper Jr.","Victory Christian Academy","Florida A&M",72,180,2,0.7954,"Lakeland","FL","USA",28.0394654,-81.9498042,12105,NA,NA,NA,NA,NA,NA,NA,NA,NA,NA,NA,NA,NA,NA,NA,NA,NA,NA,NA
33952,NA,"HighSchool",2015,2152,"Anfernee Sullivan","Taylorsville",NA,75,187,2,0.7951,"Taylorsville","MS","USA",31.8296038,-89.4281208,28129,NA,NA,NA,NA,NA,NA,NA,NA,NA,NA,NA,NA,NA,NA,NA,NA,NA,NA,NA
33953,3914547,"HighSchool",2015,2153,"Hasaan Patterson","Westlake","Old Dominion",74.5,184,2,0.7951,"Atlanta","GA","USA",33.7490987,-84.3901849,13121,NA,NA,NA,NA,NA,NA,NA,NA,NA,NA,NA,NA,NA,NA,NA,NA,NA,NA,NA
33960,3921954,"HighSchool",2015,2160,"Adam Buirge","Park Center","Northern Illinois",72,180,2,0.795,"Minneapolis","MN","USA",44.9772995,-93.2654692,27053,NA,NA,NA,NA,NA,NA,NA,NA,NA,NA,NA,NA,NA,NA,NA,NA,NA,NA,NA
33962,-1031368,"HighSchool",2015,2161,"Ray Surry","Rancho Cucamonga","San José State",75,180,2,0.7949,"Rancho Cucamonga","CA","USA",34.1033192,-117.5751735,6071,NA,NA,NA,NA,NA,NA,NA,NA,NA,NA,NA,NA,NA,NA,NA,NA,NA,NA,NA
33963,3915501,"HighSchool",2015,2163,"Damon Terry","Everett","Central Michigan",71,178,2,0.7948,"Lansing","MI","USA",42.7337712,-84.5553805,26065,NA,NA,NA,NA,NA,NA,NA,NA,NA,NA,NA,NA,NA,NA,NA,NA,NA,NA,NA
33967,3916748,"HighSchool",2015,2167,"Keishawn Watson","Wheaton Warrenville South","Western Michigan",71,165,2,0.7946,"Wheaton","IL","USA",41.8646959,-88.1101709,17043,NA,NA,NA,NA,NA,NA,NA,NA,NA,NA,NA,NA,NA,NA,NA,NA,NA,NA,NA
33971,3914416,"HighSchool",2015,2171,"Deric Phouthavong","Hamilton Township","Bowling Green",75,187,2,0.7946,"Columbus","OH","USA",39.9622601,-83.0007065,39049,NA,NA,NA,NA,NA,NA,NA,NA,NA,NA,NA,NA,NA,NA,NA,NA,NA,NA,NA
33979,3916205,"HighSchool",2015,2180,"Alex Honey","Guyer","SMU",75,190,2,0.7938,"Denton","TX","USA",33.2150386,-97.1330516,48121,NA,NA,NA,NA,NA,NA,NA,NA,NA,NA,NA,NA,NA,NA,NA,NA,NA,NA,NA
33997,3921918,"HighSchool",2015,2197,"Tyraiq Beals","East Orange Campus","Connecticut",72,180,2,0.7931,"East Orange","NJ","USA",40.767323,-74.2048677,34013,NA,NA,NA,NA,NA,NA,NA,NA,NA,NA,NA,NA,NA,NA,NA,NA,NA,NA,NA
33998,3921706,"HighSchool",2015,2198,"Brandon Presley","Great Oak","UNLV",73,180,2,0.7931,"Temecula","CA","USA",33.4946353,-117.1473661,6065,NA,NA,NA,NA,NA,NA,NA,NA,NA,NA,NA,NA,NA,NA,NA,NA,NA,NA,NA
34001,3919132,"HighSchool",2015,2202,"Ladante Harris","Sebring","Florida Atlantic",70,170,2,0.793,"Sebring","FL","USA",27.4957453,-81.4410425,12055,NA,NA,NA,NA,NA,NA,NA,NA,NA,NA,NA,NA,NA,NA,NA,NA,NA,NA,NA
34003,3918395,"HighSchool",2015,2204,"Richard Hallman","Hillgrove","Troy",76,180,2,0.7929,"Powder Springs","GA","USA",33.8595492,-84.683824,13067,NA,NA,NA,NA,NA,NA,NA,NA,NA,NA,NA,NA,NA,NA,NA,NA,NA,NA,NA
34030,3918243,"HighSchool",2015,2231,"Markis McCray","Trinity","Louisiana Monroe",70,175,2,0.7917,"Euless","TX","USA",32.8457865,-97.0667142473263,48439,NA,NA,NA,NA,NA,NA,NA,NA,NA,NA,NA,NA,NA,NA,NA,NA,NA,NA,NA
34031,4361684,"HighSchool",2015,2232,"Raghib Ismail Jr.","Ranchview",NA,71,176,2,0.7914,"Carrollton","TX","USA",32.9537349,-96.8902816,48113,NA,NA,NA,NA,NA,NA,NA,NA,NA,NA,NA,NA,NA,NA,NA,NA,NA,NA,NA
34056,4037605,"HighSchool",2015,2260,"Henri Murphy","Dollarway",NA,71,180,2,0.7898,"White Hall","AR","USA",34.2739862,-92.0909766,5069,NA,NA,NA,NA,NA,NA,NA,NA,NA,NA,NA,NA,NA,NA,NA,NA,NA,NA,NA
34068,-1010569,"HighSchool",2015,2275,"Jestin Green","Admiral Farragut Academy","Florida International",74,180,2,0.7895,"Saint Petersburg","FL","USA",27.7703796,-82.6695085,12103,NA,NA,NA,NA,NA,NA,NA,NA,NA,NA,NA,NA,NA,NA,NA,NA,NA,NA,NA
34073,3914538,"HighSchool",2015,2280,"Kyle Goddard","St Mary S Ryken","Old Dominion",70.5,180,2,0.7893,"Leonardtown","MD","USA",38.2912431,-76.6357946,24037,NA,NA,NA,NA,NA,NA,NA,NA,NA,NA,NA,NA,NA,NA,NA,NA,NA,NA,NA
34077,3917940,"HighSchool",2015,2287,"Hakeem Butler","Fort Bend Travis","Iowa State",78,205,2,0.7891,"Richmond","TX","USA",29.5821811,-95.7607832,48157,NA,NA,NA,NA,NA,NA,NA,NA,NA,NA,NA,NA,NA,NA,NA,NA,NA,NA,NA
34085,3911493,"HighSchool",2015,2295,"Reggie Daniels","Hendrickson",NA,72.5,167,2,0.7891,"Pflugerville","TX","USA",30.4393696,-97.6200043,48453,NA,NA,NA,NA,NA,NA,NA,NA,NA,NA,NA,NA,NA,NA,NA,NA,NA,NA,NA
35029,NA,"HighSchool",2015,2322,"David Haynes","Guyer",NA,73,185,2,0.7889,"Denton","TX","USA",33.2150386,-97.1330516,48121,NA,NA,NA,NA,NA,NA,NA,NA,NA,NA,NA,NA,NA,NA,NA,NA,NA,NA,NA
34110,3916927,"HighSchool",2015,2324,"Will Hastings","Pulaski Academy","Auburn",70,155,2,0.7889,"Little Rock","AR","USA",34.7464809,-92.2895948,5119,NA,NA,NA,NA,NA,NA,NA,NA,NA,NA,NA,NA,NA,NA,NA,NA,NA,NA,NA
34116,NA,"HighSchool",2015,2326,"Jordan Caleb Allen","Thayer Academy",NA,74,190,2,0.7889,"Braintree","MA","USA",42.2064195,-71.005067,25021,NA,NA,NA,NA,NA,NA,NA,NA,NA,NA,NA,NA,NA,NA,NA,NA,NA,NA,NA
34114,NA,"HighSchool",2015,2327,"Colin Morris","Casady School",NA,75,180,2,0.7889,"Oklahoma City","OK","USA",35.4729886,-97.5170536,40109,NA,NA,NA,NA,NA,NA,NA,NA,NA,NA,NA,NA,NA,NA,NA,NA,NA,NA,NA
34139,3921632,"HighSchool",2015,2354,"Austin Maloney","Columbus","Florida International",71,174,2,0.7871,"Miami","FL","USA",25.7742658,-80.1936589,12086,NA,NA,NA,NA,NA,NA,NA,NA,NA,NA,NA,NA,NA,NA,NA,NA,NA,NA,NA
34150,3914576,"HighSchool",2015,2364,"Derrick Dick","A&M Consolidated","UT San Antonio",68,173,2,0.7864,"College Station","TX","USA",30.5955289,-96.3071042,48041,NA,NA,NA,NA,NA,NA,NA,NA,NA,NA,NA,NA,NA,NA,NA,NA,NA,NA,NA
34154,3922009,"HighSchool",2015,2368,"Nate Mullen","Hickory Ridge","Charlotte",68,170,2,0.7859,"Harrisburg","NC","USA",35.3262523,-80.6446563,37025,NA,NA,NA,NA,NA,NA,NA,NA,NA,NA,NA,NA,NA,NA,NA,NA,NA,NA,NA
34157,3921997,"HighSchool",2015,2371,"Alex Barrow","Butler","Charlotte",71,169,2,0.7857,"Matthews","NC","USA",35.1170873,-80.723718,37119,NA,NA,NA,NA,NA,NA,NA,NA,NA,NA,NA,NA,NA,NA,NA,NA,NA,NA,NA
34184,3916566,"HighSchool",2015,2398,"K.J. Osborn","IMG Academy","Buffalo",72,180,2,0.785,"Bradenton","FL","USA",27.4989278,-82.5748194,12081,87,"MIN",26,"WR",16,12,75,48,0.64,540,11.3,3,28,45.3,47,7.2,3,33.8,1
34224,3921932,"HighSchool",2015,2442,"Aaron McLean","St Mark's School","Connecticut",78,215,2,0.7824,"Southborough","MA","USA",42.3056501,-71.5245087,25027,NA,NA,NA,NA,NA,NA,NA,NA,NA,NA,NA,NA,NA,NA,NA,NA,NA,NA,NA
34229,3910082,"HighSchool",2015,2447,"Lamont Johnson","South Oak Cliff","Incarnate Word",71.5,160,2,0.7824,"Dallas","TX","USA",32.7762719,-96.7968559,48113,NA,NA,NA,NA,NA,NA,NA,NA,NA,NA,NA,NA,NA,NA,NA,NA,NA,NA,NA
34234,4035554,"HighSchool",2015,2452,"Landen Akers","Washington","Iowa State",73,175,2,0.7824,"Cedar Rapids","IA","USA",41.9758872,-91.6704053,19113,NA,NA,NA,NA,NA,NA,NA,NA,NA,NA,NA,NA,NA,NA,NA,NA,NA,NA,NA
34237,3917969,"HighSchool",2015,2455,"Jeremiah Booker","College Station","Kansas",75,181,2,0.7824,"College Station","TX","USA",30.5955289,-96.3071042,48041,NA,NA,NA,NA,NA,NA,NA,NA,NA,NA,NA,NA,NA,NA,NA,NA,NA,NA,NA
34244,-1004402,"HighSchool",2015,2462,"Clayton Cook","Wawasee","Ball State",74,185,2,0.7821,"Syracuse","IN","USA",41.4278257,-85.7524895,18085,NA,NA,NA,NA,NA,NA,NA,NA,NA,NA,NA,NA,NA,NA,NA,NA,NA,NA,NA
34254,-1018375,"HighSchool",2015,2471,"Leron Carn","Woodland","Marshall",75,215,2,0.7817,"Dorchester","SC","USA",32.8496198,-79.9881442,45019,NA,NA,NA,NA,NA,NA,NA,NA,NA,NA,NA,NA,NA,NA,NA,NA,NA,NA,NA
34258,3921668,"HighSchool",2015,2475,"Jerry Chaney","Rancho Cucamonga","San Diego State",73,175,2,0.7814,"Rancho Cucamonga","CA","USA",34.1033192,-117.5751735,6071,NA,NA,NA,NA,NA,NA,NA,NA,NA,NA,NA,NA,NA,NA,NA,NA,NA,NA,NA
34259,3932906,"HighSchool",2015,2476,"Danzel McKinley-Lewis","Seton-La Salle","Toledo",71,175,2,0.7813,"Pittsburgh","PA","USA",40.4416941,-79.9900861,42003,NA,NA,NA,NA,NA,NA,NA,NA,NA,NA,NA,NA,NA,NA,NA,NA,NA,NA,NA
34261,3917200,"HighSchool",2015,2478,"Malik Henry","Tift County","Georgia Southern",72,150,2,0.781,"Tifton","GA","USA",31.4522765,-83.5096866,13277,NA,NA,NA,NA,NA,NA,NA,NA,NA,NA,NA,NA,NA,NA,NA,NA,NA,NA,NA
35036,NA,"HighSchool",2015,2494,"Deyanta Roberson","Tatum",NA,72,174,2,0.7798,"Tatum","TX","USA",32.315053,-94.5163729,48401,NA,NA,NA,NA,NA,NA,NA,NA,NA,NA,NA,NA,NA,NA,NA,NA,NA,NA,NA
34282,NA,"HighSchool",2015,2504,"Anthony Elliott","Oscar Smith",NA,72,175,2,0.7798,"Chesapeake","VA","USA",36.7183708,-76.2466798,51550,NA,NA,NA,NA,NA,NA,NA,NA,NA,NA,NA,NA,NA,NA,NA,NA,NA,NA,NA
34287,NA,"HighSchool",2015,2511,"Taz Richardson","Mauldin",NA,71,183,2,0.7797,"Mauldin","SC","USA",34.77873,-82.310119,45045,NA,NA,NA,NA,NA,NA,NA,NA,NA,NA,NA,NA,NA,NA,NA,NA,NA,NA,NA
34290,-1010532,"HighSchool",2015,2514,"Mark Hutchinson","Wiregrass Ranch","Florida International",74,205,2,0.7797,"Zephyrhills","FL","USA",28.2336196,-82.1811947,12101,NA,NA,NA,NA,NA,NA,NA,NA,NA,NA,NA,NA,NA,NA,NA,NA,NA,NA,NA
34293,3916749,"HighSchool",2015,2517,"Giovanni Ricci","Loveland","Western Michigan",76,195,2,0.7794,"Loveland","OH","USA",39.2689562,-84.2638406,39061,450,"CAR",27,"TE",5,0,1,1,1,2,2,0,0,0,2,2,0.2,0.4,0
34294,4242169,"HighSchool",2015,2518,"Jonathan Nance","Gulfport","Southern Mississippi",72,175,2,0.7793,"Gulfport","MS","USA",30.3674198,-89.0928155,28047,NA,NA,NA,NA,NA,NA,NA,NA,NA,NA,NA,NA,NA,NA,NA,NA,NA,NA,NA
34386,NA,"HighSchool",2015,2527,"Brendan Orange","Canada Prep Football Academy","Nevada",77,205,2,0.7776,"St. Catharines","ON","CAN",NA,NA,NA,NA,NA,NA,NA,NA,NA,NA,NA,NA,NA,NA,NA,NA,NA,NA,NA,NA,NA,NA
34303,3917005,"HighSchool",2015,2527,"Jarion Anderson","Texas High","Tulsa",70,160,2,0.779,"Texarkana","TX","USA",33.44628645,-94.0763806749353,48037,NA,NA,NA,NA,NA,NA,NA,NA,NA,NA,NA,NA,NA,NA,NA,NA,NA,NA,NA
34311,3918323,"HighSchool",2015,2535,"Joseph Parker","Cherry Creek","Wyoming",69.5,160,2,0.779,"Englewood","CO","USA",39.6482059,-104.9879641,8005,NA,NA,NA,NA,NA,NA,NA,NA,NA,NA,NA,NA,NA,NA,NA,NA,NA,NA,NA
34314,-1044154,"HighSchool",2015,2538,"Kevin Jackson","Nazareth Academy","Wyoming",75,175,2,0.779,"La Grange Park","IL","USA",41.8333646,-87.8677324,17031,NA,NA,NA,NA,NA,NA,NA,NA,NA,NA,NA,NA,NA,NA,NA,NA,NA,NA,NA
34319,NA,"HighSchool",2015,2543,"Eri'reon Hayes","Dillon","Old Dominion",72,180,2,0.779,"Dillon","SC","USA",34.4165391,-79.3713948,45033,NA,NA,NA,NA,NA,NA,NA,NA,NA,NA,NA,NA,NA,NA,NA,NA,NA,NA,NA
34321,3916143,"HighSchool",2015,2545,"Kedarian Jones","Kimball","Memphis",73,175,2,0.779,"Dallas","TX","USA",32.7762719,-96.7968559,48113,NA,NA,NA,NA,NA,NA,NA,NA,NA,NA,NA,NA,NA,NA,NA,NA,NA,NA,NA
34323,NA,"HighSchool",2015,2547,"Ray Ray Smith","Apopka","Akron",71,191,2,0.779,"Apopka","FL","USA",28.6779683,-81.5115214,12095,NA,NA,NA,NA,NA,NA,NA,NA,NA,NA,NA,NA,NA,NA,NA,NA,NA,NA,NA
34344,NA,"HighSchool",2015,2568,"Keivonte Gallmon","Chickasaw","Marshall",76,215,2,0.7783,"Chickasaw","AL","USA",30.7637991,-88.0747222,1097,NA,NA,NA,NA,NA,NA,NA,NA,NA,NA,NA,NA,NA,NA,NA,NA,NA,NA,NA
34350,3916568,"HighSchool",2015,2575,"Brandon Smiley","Sweet Home Senior","Buffalo",74,195,2,0.7782,"Buffalo","NY","USA",42.8867166,-78.8783922,36029,NA,NA,NA,NA,NA,NA,NA,NA,NA,NA,NA,NA,NA,NA,NA,NA,NA,NA,NA
34356,-1009415,"HighSchool",2015,2581,"Braylin Collins","Byrnes","Eastern Michigan",73,175,2,0.7782,"Duncan","SC","USA",34.9378962,-82.1451096,45083,NA,NA,NA,NA,NA,NA,NA,NA,NA,NA,NA,NA,NA,NA,NA,NA,NA,NA,NA
34360,3919102,"HighSchool",2015,2585,"James Brunson","Fort Myers","Florida Atlantic",71,175,2,0.7782,"Fort Myers","FL","USA",26.640628,-81.8723084,12071,NA,NA,NA,NA,NA,NA,NA,NA,NA,NA,NA,NA,NA,NA,NA,NA,NA,NA,NA
34382,3916616,"HighSchool",2015,2607,"Isaac Holder","Sickles","Eastern Michigan",71,175,2,0.7776,"Tampa","FL","USA",27.9477595,-82.458444,12057,NA,NA,NA,NA,NA,NA,NA,NA,NA,NA,NA,NA,NA,NA,NA,NA,NA,NA,NA
34385,NA,"HighSchool",2015,2610,"Raymond Gage","Keys Gate Charter","Florida International",70,175,2,0.7776,"Homestead","FL","USA",25.4718946,-80.4759905,12086,NA,NA,NA,NA,NA,NA,NA,NA,NA,NA,NA,NA,NA,NA,NA,NA,NA,NA,NA
66992,NA,"HighSchool",2015,2611,"Brendan O'Leary-Orange","Canada Prep Football Academy","Nevada",77,205,2,0.7776,"St. Catharines","ON","CAN",NA,NA,NA,NA,NA,NA,NA,NA,NA,NA,NA,NA,NA,NA,NA,NA,NA,NA,NA,NA,NA,NA
34393,3932910,"HighSchool",2015,2618,"Josh Teachey","Maurice J. McDonough","Toledo",71,170,2,0.7772,"Pomfret","MD","USA",38.5773417,-77.030531,24017,NA,NA,NA,NA,NA,NA,NA,NA,NA,NA,NA,NA,NA,NA,NA,NA,NA,NA,NA
34411,4040795,"HighSchool",2015,2634,"Isaiah McIntyre","Las Cruces","New Mexico State",72,175,2,0.7756,"Las Cruces","NM","USA",32.3140354,-106.7798078,35013,NA,NA,NA,NA,NA,NA,NA,NA,NA,NA,NA,NA,NA,NA,NA,NA,NA,NA,NA
34414,3918448,"HighSchool",2015,2637,"OJ Clark","Wichita Falls","New Mexico State",67,150,2,0.7753,"Wichita Falls","TX","USA",33.9137085,-98.4933873,48485,NA,NA,NA,NA,NA,NA,NA,NA,NA,NA,NA,NA,NA,NA,NA,NA,NA,NA,NA
34425,3915333,"HighSchool",2015,2649,"Luke Mayock","Clements","Miami (OH)",75.5,175,2,0.775,"Sugar Land","TX","USA",29.6196787,-95.6349463,48157,NA,NA,NA,NA,NA,NA,NA,NA,NA,NA,NA,NA,NA,NA,NA,NA,NA,NA,NA
34432,3917056,"HighSchool",2015,2656,"Dedrick Shy","Warren Easton","Tulane",74,185,2,0.775,"New Orleans","LA","USA",29.9499323,-90.0701156,22071,NA,NA,NA,NA,NA,NA,NA,NA,NA,NA,NA,NA,NA,NA,NA,NA,NA,NA,NA
34437,3921654,"HighSchool",2015,2661,"Parker Baldwin","Siloam Springs","San Diego State",74,200,2,0.775,"Siloam Springs","AR","USA",36.1881365,-94.5404962,5007,NA,NA,NA,NA,NA,NA,NA,NA,NA,NA,NA,NA,NA,NA,NA,NA,NA,NA,NA
34438,3918251,"HighSchool",2015,2662,"RJ Turner","Natchitoches Central","Louisiana Monroe",74,197,2,0.775,"Natchitoches","LA","USA",31.7606732,-93.0860209,22069,NA,NA,NA,NA,NA,NA,NA,NA,NA,NA,NA,NA,NA,NA,NA,NA,NA,NA,NA
34441,3918077,"HighSchool",2015,2665,"Jante Boston","Jean Ribault","Idaho",70,178,2,0.775,"Jacksonville","FL","USA",30.3321838,-81.655651,12031,NA,NA,NA,NA,NA,NA,NA,NA,NA,NA,NA,NA,NA,NA,NA,NA,NA,NA,NA
34988,3910265,"HighSchool",2015,2666,"Devin Phelps","St. Frances Academy","Monmouth",73,175,2,0.7748,"Baltimore","MD","USA",39.2908816,-76.610759,24510,NA,NA,NA,NA,NA,NA,NA,NA,NA,NA,NA,NA,NA,NA,NA,NA,NA,NA,NA
34445,NA,"HighSchool",2015,2670,"Tyler Taylor","Stephenson",NA,75,180,2,0.7743,"Stone Mountain","GA","USA",33.8080924,-84.1706273,13089,NA,NA,NA,NA,NA,NA,NA,NA,NA,NA,NA,NA,NA,NA,NA,NA,NA,NA,NA
34453,3910547,"HighSchool",2015,2679,"Aaron Moore","Cathedral","UC Davis",71,179,2,0.7732,"Los Angeles","CA","USA",34.0536909,-118.2427666,6037,NA,NA,NA,NA,NA,NA,NA,NA,NA,NA,NA,NA,NA,NA,NA,NA,NA,NA,NA
34463,3916161,"HighSchool",2015,2689,"Ross Burcham","Adamsville Junior / Senior","Memphis",77,215,2,0.7731,"Adamsville","TN","USA",35.2697414999999,-88.3904438424974,47109,NA,NA,NA,NA,NA,NA,NA,NA,NA,NA,NA,NA,NA,NA,NA,NA,NA,NA,NA
34464,4039112,"HighSchool",2015,2690,"Matt Seymour","New Westminster","Ohio",73,167,2,0.7731,"New Westminster","BC","CAN",NA,NA,NA,NA,NA,NA,NA,NA,NA,NA,NA,NA,NA,NA,NA,NA,NA,NA,NA,NA,NA,NA
34991,3917553,"HighSchool",2015,2691,"Marquan Greene","Colquitt County","Georgia State",70,180,2,0.7731,"Moultrie","GA","USA",31.179998,-83.7887928,13071,NA,NA,NA,NA,NA,NA,NA,NA,NA,NA,NA,NA,NA,NA,NA,NA,NA,NA,NA
34472,NA,"HighSchool",2015,2700,"Adam Scott","Guyer","Harvard",66,158,2,0.7723,"Denton","TX","USA",33.2150386,-97.1330516,48121,NA,NA,NA,NA,NA,NA,NA,NA,NA,NA,NA,NA,NA,NA,NA,NA,NA,NA,NA
34485,3918399,"HighSchool",2015,2713,"Ismail Saleem","Carver","Troy",70,160,2,0.7716,"Montgomery","AL","USA",32.3669656,-86.3006485,1101,NA,NA,NA,NA,NA,NA,NA,NA,NA,NA,NA,NA,NA,NA,NA,NA,NA,NA,NA
34526,3931784,"HighSchool",2015,2758,"Nick Mathews","Patriot",NA,70,160,2,0.7698,"Nokesville","VA","USA",38.6984987,-77.5800445,51153,NA,NA,NA,NA,NA,NA,NA,NA,NA,NA,NA,NA,NA,NA,NA,NA,NA,NA,NA
34534,NA,"HighSchool",2015,2765,"Quen Hardy","Blackman","Navy",75,190,2,0.7692,"Murfreesboro","TN","USA",35.845999,-86.3920452,47149,NA,NA,NA,NA,NA,NA,NA,NA,NA,NA,NA,NA,NA,NA,NA,NA,NA,NA,NA
34542,3917120,"HighSchool",2015,2774,"Anu Somoye","Alief Taylor","New Mexico",73,184,2,0.769,"Houston","TX","USA",29.7589382,-95.3676974,48201,NA,NA,NA,NA,NA,NA,NA,NA,NA,NA,NA,NA,NA,NA,NA,NA,NA,NA,NA
34544,NA,"HighSchool",2015,2775,"Cash Conder","Celina","Western Michigan",70,198,2,0.7683,"Celina","TX","USA",33.3238976,-96.785342,48085,NA,NA,NA,NA,NA,NA,NA,NA,NA,NA,NA,NA,NA,NA,NA,NA,NA,NA,NA
34600,NA,"HighSchool",2015,2831,"Michael Kolzow","Naperville Central","Illinois State",75,180,2,0.7667,"Naperville","IL","USA",41.7728699,-88.1479278,17043,NA,NA,NA,NA,NA,NA,NA,NA,NA,NA,NA,NA,NA,NA,NA,NA,NA,NA,NA
67002,NA,"HighSchool",2015,2843,"Nolan Thompson","Huntington Beach",NA,76,190,2,0.7667,"Huntington Beach","CA","USA",33.6783336,-118.0000166,6059,NA,NA,NA,NA,NA,NA,NA,NA,NA,NA,NA,NA,NA,NA,NA,NA,NA,NA,NA
67004,NA,"HighSchool",2015,2845,"Cory Contini","Dover",NA,73,175,2,0.7667,"Dover","OH","USA",40.5213381,-81.4741475,39157,NA,NA,NA,NA,NA,NA,NA,NA,NA,NA,NA,NA,NA,NA,NA,NA,NA,NA,NA
67015,NA,"HighSchool",2015,2856,"Kahlil Bradley","Monrovia",NA,74,185,2,0.7667,"Monrovia","CA","USA",34.1483499,-118.0014517,6037,NA,NA,NA,NA,NA,NA,NA,NA,NA,NA,NA,NA,NA,NA,NA,NA,NA,NA,NA
67027,NA,"HighSchool",2015,2869,"Fundrail Quimbley","Lee County",NA,70,180,2,0.7667,"Leesburg","GA","USA",31.7324556,-84.1711966,13177,NA,NA,NA,NA,NA,NA,NA,NA,NA,NA,NA,NA,NA,NA,NA,NA,NA,NA,NA
67033,NA,"HighSchool",2015,2875,"Doc O'Connor","Basha",NA,68,170,2,0.7667,"Chandler","AZ","USA",33.3062223,-111.8413317,4013,NA,NA,NA,NA,NA,NA,NA,NA,NA,NA,NA,NA,NA,NA,NA,NA,NA,NA,NA
67034,NA,"HighSchool",2015,2877,"Winston Guillory","Episcopal School of Dallas",NA,72,170,2,0.7667,"Dallas","TX","USA",32.7762719,-96.7968559,48113,NA,NA,NA,NA,NA,NA,NA,NA,NA,NA,NA,NA,NA,NA,NA,NA,NA,NA,NA
67053,NA,"HighSchool",2015,2901,"Blake Fisher","Rancho Cucamonga",NA,75,175,2,0.7667,"Rancho Cucamonga","CA","USA",34.1033192,-117.5751735,6071,NA,NA,NA,NA,NA,NA,NA,NA,NA,NA,NA,NA,NA,NA,NA,NA,NA,NA,NA
67066,NA,"HighSchool",2015,2914,"Josh Sromovsky","Oregon",NA,75,200,2,0.7667,"Oregon","WI","USA",42.9259657,-89.3842779,55025,NA,NA,NA,NA,NA,NA,NA,NA,NA,NA,NA,NA,NA,NA,NA,NA,NA,NA,NA
67075,NA,"HighSchool",2015,2925,"Jeremy Vincent","Oaks Christian",NA,71,180,2,0.7667,"Thousand Oaks","CA","USA",34.17142715,-118.910587729744,6111,NA,NA,NA,NA,NA,NA,NA,NA,NA,NA,NA,NA,NA,NA,NA,NA,NA,NA,NA
67076,NA,"HighSchool",2015,2926,"Jamarius Way","Glades Day School","Bethune-Cookman",76,195,2,0.7667,"Belle Glade","FL","USA",26.6845104,-80.6675577,12099,NA,NA,NA,NA,NA,NA,NA,NA,NA,NA,NA,NA,NA,NA,NA,NA,NA,NA,NA
67081,NA,"HighSchool",2015,2931,"Malcolm Bryant","Oviedo",NA,73,200,2,0.7667,"Oviedo","FL","USA",28.6702526,-81.2084941,12117,NA,NA,NA,NA,NA,NA,NA,NA,NA,NA,NA,NA,NA,NA,NA,NA,NA,NA,NA
67087,NA,"HighSchool",2015,2939,"Brandon Gaston","St. Rita",NA,74,185,2,0.7667,"Chicago","IL","USA",41.8755616,-87.6244212,17031,NA,NA,NA,NA,NA,NA,NA,NA,NA,NA,NA,NA,NA,NA,NA,NA,NA,NA,NA
67094,NA,"HighSchool",2015,2947,"Koby Tripp","Mission Oak",NA,73,175,2,0.7667,"Tulare","CA","USA",36.2077351,-119.3473421,6107,NA,NA,NA,NA,NA,NA,NA,NA,NA,NA,NA,NA,NA,NA,NA,NA,NA,NA,NA
67098,NA,"HighSchool",2015,2951,"Marquise Irvin","Madison County","Mercer",74,194,2,0.7667,"Gurley","AL","USA",34.7017558,-86.3758201,1089,NA,NA,NA,NA,NA,NA,NA,NA,NA,NA,NA,NA,NA,NA,NA,NA,NA,NA,NA
67102,NA,"HighSchool",2015,2955,"Chris Shelling","Central Gwinnett",NA,69,165,2,0.7667,"Lawrenceville","GA","USA",33.9562149,-83.9879625,13135,NA,NA,NA,NA,NA,NA,NA,NA,NA,NA,NA,NA,NA,NA,NA,NA,NA,NA,NA
67112,NA,"HighSchool",2015,2967,"Desmond Kirby","Case",NA,77,190,2,0.7667,"Racine","WI","USA",42.7260523,-87.7825242,55101,NA,NA,NA,NA,NA,NA,NA,NA,NA,NA,NA,NA,NA,NA,NA,NA,NA,NA,NA
67114,NA,"HighSchool",2015,2969,"Kiki Hill","Goliad",NA,NA,NA,2,0.7667,"Goliad","TX","USA",28.6686557,-97.3909125,48175,NA,NA,NA,NA,NA,NA,NA,NA,NA,NA,NA,NA,NA,NA,NA,NA,NA,NA,NA
67132,NA,"HighSchool",2015,2988,"David Gardner","Atlantic Coast",NA,74,175,2,0.7667,"Jacksonville","FL","USA",30.3321838,-81.655651,12031,NA,NA,NA,NA,NA,NA,NA,NA,NA,NA,NA,NA,NA,NA,NA,NA,NA,NA,NA
67136,NA,"HighSchool",2015,2992,"Glen Calvin","Lawrence Central",NA,78,200,2,0.7667,"Indianapolis","IN","USA",39.7683331,-86.1583502,18097,NA,NA,NA,NA,NA,NA,NA,NA,NA,NA,NA,NA,NA,NA,NA,NA,NA,NA,NA
67142,NA,"HighSchool",2015,2998,"Chase Tate","Gilmer",NA,65,160,2,0.7667,"Gilmer","TX","USA",32.7312256,-94.9469309,48459,NA,NA,NA,NA,NA,NA,NA,NA,NA,NA,NA,NA,NA,NA,NA,NA,NA,NA,NA
67143,NA,"HighSchool",2015,2999,"Keegen Hlad","West Salem",NA,76,190,2,0.7667,"Salem","OR","USA",44.9391565,-123.033121,41047,NA,NA,NA,NA,NA,NA,NA,NA,NA,NA,NA,NA,NA,NA,NA,NA,NA,NA,NA
67146,NA,"HighSchool",2015,3002,"Tevin Gray","Lake Stevens",NA,70,196,2,0.7667,"Lake Stevens","WA","USA",48.0197794,-122.0660914,53061,NA,NA,NA,NA,NA,NA,NA,NA,NA,NA,NA,NA,NA,NA,NA,NA,NA,NA,NA
67148,NA,"HighSchool",2015,3004,"Michael Macon","Dr. Phillips",NA,71,167,2,0.7667,"Orlando","FL","USA",28.5421109,-81.3790304,12095,NA,NA,NA,NA,NA,NA,NA,NA,NA,NA,NA,NA,NA,NA,NA,NA,NA,NA,NA
67160,NA,"HighSchool",2015,3016,"Spencer Griffin","Fort Bend Travis",NA,72,170,2,0.7667,"Richmond","TX","USA",29.5821811,-95.7607832,48157,NA,NA,NA,NA,NA,NA,NA,NA,NA,NA,NA,NA,NA,NA,NA,NA,NA,NA,NA
67162,NA,"HighSchool",2015,3018,"Kobey Eaton","Evergreen","Air Force",75,185,2,0.7667,"Burien","WA","USA",47.469918,-122.3485274,53033,NA,NA,NA,NA,NA,NA,NA,NA,NA,NA,NA,NA,NA,NA,NA,NA,NA,NA,NA
67163,NA,"HighSchool",2015,3019,"Jaylen Harris","Steele","Sam Houston State",68,155,2,0.7667,"Cibolo","TX","USA",29.5707831,-98.2330927,48187,NA,NA,NA,NA,NA,NA,NA,NA,NA,NA,NA,NA,NA,NA,NA,NA,NA,NA,NA
67169,NA,"HighSchool",2015,3025,"Pace Temple","Geneva Community","Butler",73,185,2,0.7667,"Geneva","IL","USA",41.8875281,-88.3053525,17089,NA,NA,NA,NA,NA,NA,NA,NA,NA,NA,NA,NA,NA,NA,NA,NA,NA,NA,NA
67174,NA,"HighSchool",2015,3030,"Josh Clausen","Denver Lutheran",NA,75,188,2,0.7667,"Denver","CO","USA",39.7392364,-104.9848623,8031,NA,NA,NA,NA,NA,NA,NA,NA,NA,NA,NA,NA,NA,NA,NA,NA,NA,NA,NA
67179,NA,"HighSchool",2015,3036,"Martrel Holmes","Mission Hills",NA,70,154,2,0.7667,"San Marcos","CA","USA",33.1433723,-117.1661449,6073,NA,NA,NA,NA,NA,NA,NA,NA,NA,NA,NA,NA,NA,NA,NA,NA,NA,NA,NA
67182,NA,"HighSchool",2015,3039,"Deonte Williams","Buena",NA,76,190,2,0.7667,"Sierra Vista","AZ","USA",31.5455709,-110.2772249,4003,NA,NA,NA,NA,NA,NA,NA,NA,NA,NA,NA,NA,NA,NA,NA,NA,NA,NA,NA
67190,NA,"HighSchool",2015,3047,"Brandon Krcilek","Hamilton",NA,72,170,2,0.7667,"Chandler","AZ","USA",33.3062223,-111.8413317,4013,NA,NA,NA,NA,NA,NA,NA,NA,NA,NA,NA,NA,NA,NA,NA,NA,NA,NA,NA
67191,NA,"HighSchool",2015,3048,"Jensen Feggins","Highlands",NA,74,180,2,0.7667,"Fort Thomas","KY","USA",39.0786242,-84.4483432,21037,NA,NA,NA,NA,NA,NA,NA,NA,NA,NA,NA,NA,NA,NA,NA,NA,NA,NA,NA
34604,4048928,"HighSchool",2015,3058,"Tarik Littlejohn","Capital",NA,75,195,2,0.7667,"Boise","ID","USA",43.6166163,-116.200886,16001,NA,NA,NA,NA,NA,NA,NA,NA,NA,NA,NA,NA,NA,NA,NA,NA,NA,NA,NA
67205,NA,"HighSchool",2015,3063,"Dale Williamson","Texas High","South Dakota",69,170,2,0.7667,"Texarkana","TX","USA",33.44628645,-94.0763806749353,48037,NA,NA,NA,NA,NA,NA,NA,NA,NA,NA,NA,NA,NA,NA,NA,NA,NA,NA,NA
34626,3916213,"HighSchool",2015,3072,"Myron Gailliard","Mansfield Timberview","SMU",68,160,2,0.7649,"Arlington","TX","USA",32.7019389999999,-97.1056237903369,48439,NA,NA,NA,NA,NA,NA,NA,NA,NA,NA,NA,NA,NA,NA,NA,NA,NA,NA,NA
34655,3918404,"HighSchool",2015,3101,"Tron Folsom","Bacon County","Troy",74,195,2,0.7642,"Alma","GA","USA",31.5393701,-82.4623557,13005,NA,NA,NA,NA,NA,NA,NA,NA,NA,NA,NA,NA,NA,NA,NA,NA,NA,NA,NA
34662,NA,"HighSchool",2015,3107,"Chris Ford","Hamilton Southeastern",NA,75,175,2,0.7631,"Fishers","IN","USA",39.9555928,-86.0138729,18057,NA,NA,NA,NA,NA,NA,NA,NA,NA,NA,NA,NA,NA,NA,NA,NA,NA,NA,NA
34669,NA,"HighSchool",2015,3115,"Marquise Bridges","DeLaSalle","North Dakota State",72,180,2,0.7631,"Minneapolis","MN","USA",44.9772995,-93.2654692,27053,NA,NA,NA,NA,NA,NA,NA,NA,NA,NA,NA,NA,NA,NA,NA,NA,NA,NA,NA
34682,4043617,"HighSchool",2015,3128,"Simino Walden","Hialeah-Miami Lakes","Marshall",68,150,2,0.7631,"Hialeah","FL","USA",25.8575963,-80.2781057,12086,NA,NA,NA,NA,NA,NA,NA,NA,NA,NA,NA,NA,NA,NA,NA,NA,NA,NA,NA
34685,-1043145,"HighSchool",2015,3131,"Andre Thomas-Cobb","Lehigh Senior","Western Kentucky",76,200,2,0.7631,"Lehigh Acres","FL","USA",26.6091509,-81.652407,12071,NA,NA,NA,NA,NA,NA,NA,NA,NA,NA,NA,NA,NA,NA,NA,NA,NA,NA,NA
35001,NA,"HighSchool",2015,3142,"Naquan Howard","F. W. Buchholz","Georgia Southern",73,180,2,0.7198,"Gainesville","FL","USA",29.6519684,-82.3249846,12001,NA,NA,NA,NA,NA,NA,NA,NA,NA,NA,NA,NA,NA,NA,NA,NA,NA,NA,NA
34697,3920864,"HighSchool",2015,3144,"Jaquavis Dixon","Hagerty","Akron",74,180,2,0.7616,"Oviedo","FL","USA",28.6702526,-81.2084941,12117,NA,NA,NA,NA,NA,NA,NA,NA,NA,NA,NA,NA,NA,NA,NA,NA,NA,NA,NA
34709,3933311,"HighSchool",2015,3156,"Darren Woods","Elkins","UNLV",71,196,2,0.7609,"Missouri City","TX","USA",29.6185669,-95.5377215,48157,NA,NA,NA,NA,NA,NA,NA,NA,NA,NA,NA,NA,NA,NA,NA,NA,NA,NA,NA
35140,NA,"HighSchool",2015,3167,"P.J. Fulmore","North Catholic","Duquesne",68,185,2,0.7598,"Pittsburgh","PA","USA",40.4416941,-79.9900861,42003,NA,NA,NA,NA,NA,NA,NA,NA,NA,NA,NA,NA,NA,NA,NA,NA,NA,NA,NA
34737,NA,"HighSchool",2015,3187,"Nick Cain","John Tyler",NA,69,165,2,0.7581,"Tyler","TX","USA",32.3512601,-95.3010624,48423,NA,NA,NA,NA,NA,NA,NA,NA,NA,NA,NA,NA,NA,NA,NA,NA,NA,NA,NA
34751,3918324,"HighSchool",2015,3200,"James Price","Camas","Wyoming",74,195,2,0.7581,"Camas","WA","USA",45.5911103,-122.4122248,53011,NA,NA,NA,NA,NA,NA,NA,NA,NA,NA,NA,NA,NA,NA,NA,NA,NA,NA,NA
34752,3918330,"HighSchool",2015,3201,"Logan Wilson","Natrona County","Wyoming",74,205,2,0.7581,"Casper","WY","USA",42.866632,-106.313081,56025,NA,NA,NA,NA,NA,NA,NA,NA,NA,NA,NA,NA,NA,NA,NA,NA,NA,NA,NA
34757,3915357,"HighSchool",2015,3207,"Kyle Belack","Myrtle Beach","Ohio",71,190,2,0.7575,"Myrtle Beach","SC","USA",33.6956461,-78.8900409,45051,NA,NA,NA,NA,NA,NA,NA,NA,NA,NA,NA,NA,NA,NA,NA,NA,NA,NA,NA
34763,NA,"HighSchool",2015,3212,"Patrick Onyiah","Alief Elsik",NA,75,160,2,0.7575,"Houston","TX","USA",29.7589382,-95.3676974,48201,NA,NA,NA,NA,NA,NA,NA,NA,NA,NA,NA,NA,NA,NA,NA,NA,NA,NA,NA
34775,NA,"HighSchool",2015,3223,"Jordan Carswell","R B Stall",NA,76,180,2,0.7544,"North Charleston","SC","USA",32.9131295,-80.0629981965219,45019,NA,NA,NA,NA,NA,NA,NA,NA,NA,NA,NA,NA,NA,NA,NA,NA,NA,NA,NA
34778,3916574,"HighSchool",2015,3226,"Dev Lamour","Vanier College","Buffalo",73,200,2,0.7542,"Montreal","QC","CAN",NA,NA,NA,NA,NA,NA,NA,NA,NA,NA,NA,NA,NA,NA,NA,NA,NA,NA,NA,NA,NA,NA
34787,3915802,"HighSchool",2015,3235,"Lucky Jackson","Lafayette","Western Kentucky",74,175,2,0.7531,"Lexington","KY","USA",38.0464066,-84.4970393,21067,NA,NA,NA,NA,NA,NA,NA,NA,NA,NA,NA,NA,NA,NA,NA,NA,NA,NA,NA
34795,3918230,"HighSchool",2015,3243,"Xavier Brown","Duncanville","Louisiana Monroe",71.5,170,2,0.7531,"Duncanville","TX","USA",32.6518004,-96.9083366,48113,NA,NA,NA,NA,NA,NA,NA,NA,NA,NA,NA,NA,NA,NA,NA,NA,NA,NA,NA
34823,-1013251,"HighSchool",2015,3271,"Devin Smith","John Curtis","Houston",75,180,2,0.7531,"New Orleans","LA","USA",29.9499323,-90.0701156,22071,NA,NA,NA,NA,NA,NA,NA,NA,NA,NA,NA,NA,NA,NA,NA,NA,NA,NA,NA
34825,4039101,"HighSchool",2015,3273,"Adam Luehrman","Athens","Ohio",76,210,2,0.7531,"The Plains","OH","USA",39.3700911,-82.1323674,39009,NA,NA,NA,NA,NA,NA,NA,NA,NA,NA,NA,NA,NA,NA,NA,NA,NA,NA,NA
34833,4039115,"HighSchool",2015,3281,"Ryan Luehrman","Athens","Ohio",76,214,2,0.7531,"The Plains","OH","USA",39.3700911,-82.1323674,39009,NA,NA,NA,NA,NA,NA,NA,NA,NA,NA,NA,NA,NA,NA,NA,NA,NA,NA,NA
34840,NA,"HighSchool",2015,3288,"Tristan Nolan","Foley",NA,70,172,2,0.7516,"Foley","AL","USA",30.4065868,-87.6835974,1003,NA,NA,NA,NA,NA,NA,NA,NA,NA,NA,NA,NA,NA,NA,NA,NA,NA,NA,NA
34855,4239985,"HighSchool",2015,3305,"Lesley Dalger","Westminster Academy","Air Force",77,205,2,0.7498,"Fort Lauderdale","FL","USA",26.1223084,-80.1433786,12011,NA,NA,NA,NA,NA,NA,NA,NA,NA,NA,NA,NA,NA,NA,NA,NA,NA,NA,NA
34861,NA,"HighSchool",2015,3312,"Alex Wilde","Brandon Valley",NA,76,205,2,0.7498,"Brandon","SD","USA",43.594727,-96.572128,46099,NA,NA,NA,NA,NA,NA,NA,NA,NA,NA,NA,NA,NA,NA,NA,NA,NA,NA,NA
34923,4040688,"HighSchool",2015,3362,"Avery Jackson","LBJ","UT San Antonio",69,170,2,0.7431,"Austin","TX","USA",30.2711286,-97.7436995,48453,NA,NA,NA,NA,NA,NA,NA,NA,NA,NA,NA,NA,NA,NA,NA,NA,NA,NA,NA
34939,4259551,"HighSchool",2015,3377,"Ahkil Crumpton","Neumann Goretti","Temple",69,165,2,0.7397,"Philadelphia","PA","USA",39.9527237,-75.1635262,42101,NA,NA,NA,NA,NA,NA,NA,NA,NA,NA,NA,NA,NA,NA,NA,NA,NA,NA,NA
34940,NA,"HighSchool",2015,3379,"Chase Creviston","New Berlin",NA,71,180,2,0.7397,"New Berlin","IL","USA",39.7253276,-89.9106632,17167,NA,NA,NA,NA,NA,NA,NA,NA,NA,NA,NA,NA,NA,NA,NA,NA,NA,NA,NA
34947,3918453,"HighSchool",2015,3387,"Tymon Locklin","Clovis North","New Mexico State",74,184,2,0.7381,"Clovis","CA","USA",36.8252277,-119.7029194,6019,NA,NA,NA,NA,NA,NA,NA,NA,NA,NA,NA,NA,NA,NA,NA,NA,NA,NA,NA
34963,4050286,"HighSchool",2015,3393,"Jonathan Hodoh","Dutchtown",NA,73,197,2,0.733,"Geismar","LA","USA",30.2043633,-91.0226013,22005,NA,NA,NA,NA,NA,NA,NA,NA,NA,NA,NA,NA,NA,NA,NA,NA,NA,NA,NA
34966,3915331,"HighSchool",2015,3396,"Nick Marosi","Catholic Central","Miami (OH)",74,195,2,0.733,"Grand Rapids","MI","USA",42.9632405,-85.6678639,26081,NA,NA,NA,NA,NA,NA,NA,NA,NA,NA,NA,NA,NA,NA,NA,NA,NA,NA,NA
34977,3909011,"HighSchool",2015,3407,"Marquise Lewis","Omaha North","South Dakota State",71,180,2,0.733,"Omaha","NE","USA",41.2587459,-95.9383758,31055,NA,NA,NA,NA,NA,NA,NA,NA,NA,NA,NA,NA,NA,NA,NA,NA,NA,NA,NA
35006,3927094,"HighSchool",2015,3421,"Juwan Davis","Hillsboro","Austin Peay",74,185,2,0.7197,"Nashville","TN","USA",36.1622296,-86.7743531,47037,NA,NA,NA,NA,NA,NA,NA,NA,NA,NA,NA,NA,NA,NA,NA,NA,NA,NA,NA
35010,NA,"HighSchool",2015,3425,"Connor Ham","Solon","Northern Iowa",74,180,2,0.7197,"Solon","IA","USA",41.8072344,-91.4940604,19103,NA,NA,NA,NA,NA,NA,NA,NA,NA,NA,NA,NA,NA,NA,NA,NA,NA,NA,NA
35011,3921645,"HighSchool",2015,3427,"Julian Williams","Georgia Military College Prep","Florida International",69,170,2,0.7197,"Suwanee","GA","USA",34.0514898,-84.0712997,13135,NA,NA,NA,NA,NA,NA,NA,NA,NA,NA,NA,NA,NA,NA,NA,NA,NA,NA,NA
35032,NA,"HighSchool",2015,3434,"Apollos Hester","East View",NA,71,190,2,0.7097,"Georgetown","TX","USA",30.671598,-97.6550066012043,48491,NA,NA,NA,NA,NA,NA,NA,NA,NA,NA,NA,NA,NA,NA,NA,NA,NA,NA,NA
35048,3909090,"HighSchool",2015,3441,"Airan Reed","South Gibson","Southern Illinois",73,185,1,0.6997,"Medina","TN","USA",35.8028453,-88.7747808,47053,NA,NA,NA,NA,NA,NA,NA,NA,NA,NA,NA,NA,NA,NA,NA,NA,NA,NA,NA
35053,-1043811,"HighSchool",2015,3448,"Noah Stengel","North","Wisconsin",73,190,1,0.6997,"Sheboygan","WI","USA",43.7508284,-87.71453,55117,NA,NA,NA,NA,NA,NA,NA,NA,NA,NA,NA,NA,NA,NA,NA,NA,NA,NA,NA
35061,NA,"HighSchool",2015,3456,"Jeremy Schick","Stevens - 42",NA,71,180,1,0.6997,"Rapid City","SD","USA",44.081176,-103.228006,46103,NA,NA,NA,NA,NA,NA,NA,NA,NA,NA,NA,NA,NA,NA,NA,NA,NA,NA,NA
35067,NA,"HighSchool",2015,3462,"Noah Nix","Westminster School","Fordham",69,169,1,0.6997,"Atlanta","GA","USA",33.7490987,-84.3901849,13121,NA,NA,NA,NA,NA,NA,NA,NA,NA,NA,NA,NA,NA,NA,NA,NA,NA,NA,NA
35078,3912045,"HighSchool",2015,3477,"Vinny Papale","Bishop Eustace","Delaware",73,190,1,0.6997,"Merchantville","NJ","USA",39.951634,-75.0487627131713,34007,NA,NA,NA,NA,NA,NA,NA,NA,NA,NA,NA,NA,NA,NA,NA,NA,NA,NA,NA
35166,3907934,"HighSchool",2015,3478,"Alan Butler","Timber Creek","Bucknell",73,175,1,0.6997,"Sicklerville","NJ","USA",39.7173375,-74.9693329,34007,NA,NA,NA,NA,NA,NA,NA,NA,NA,NA,NA,NA,NA,NA,NA,NA,NA,NA,NA
35167,NA,"HighSchool",2015,3479,"Vaquan Small","Booker T. Washington","Samford",74,170,1,0.6997,"Miami","FL","USA",25.7742658,-80.1936589,12086,NA,NA,NA,NA,NA,NA,NA,NA,NA,NA,NA,NA,NA,NA,NA,NA,NA,NA,NA
35093,3909356,"HighSchool",2015,3497,"Andrew Prince","Palm Beach Gardens","Fordham",74,185,1,0.6997,"Palm Beach Gardens","FL","USA",26.8418256,-80.1359069466668,12099,NA,NA,NA,NA,NA,NA,NA,NA,NA,NA,NA,NA,NA,NA,NA,NA,NA,NA,NA
35106,NA,"HighSchool",2015,3512,"Fisayo Oluleye","Manheim Township","Bucknell",72,177,1,0.6997,"Lancaster","PA","USA",40.03813,-76.3056686,42071,NA,NA,NA,NA,NA,NA,NA,NA,NA,NA,NA,NA,NA,NA,NA,NA,NA,NA,NA
35115,NA,"HighSchool",2015,3523,"Andrew Force","Berwick Area","Fordham",74,200,1,0.6997,"Berwick","PA","USA",41.0602024,-76.2461259,42037,NA,NA,NA,NA,NA,NA,NA,NA,NA,NA,NA,NA,NA,NA,NA,NA,NA,NA,NA
35117,NA,"HighSchool",2015,3525,"Marcus Ademilola","Wyoming Seminary Upper School","Bucknell",76,205,1,0.6997,"Jackson","NJ","USA",40.1151766,-74.3647772,34029,NA,NA,NA,NA,NA,NA,NA,NA,NA,NA,NA,NA,NA,NA,NA,NA,NA,NA,NA
35177,NA,"HighSchool",2015,3534,"Cameron Moore","Pamlico County","North Carolina A&T",75,185,1,0.6997,"Bayboro","NC","USA",35.1429445,-76.7702093,37137,NA,NA,NA,NA,NA,NA,NA,NA,NA,NA,NA,NA,NA,NA,NA,NA,NA,NA,NA
35126,NA,"HighSchool",2015,3537,"Nehari Crawford","Fort Pierce Central","Duquesne",69.5,165,1,0.6997,"Fort Pierce","FL","USA",27.4467056,-80.3256056,12111,NA,NA,NA,NA,NA,NA,NA,NA,NA,NA,NA,NA,NA,NA,NA,NA,NA,NA,NA
35197,4035851,"HighSchool",2016,13,"Demetris Robertson","Savannah Christian Prep","California",71.75,175,5,0.9905,"Savannah","GA","USA",32.0809263,-81.0911768,13051,NA,NA,NA,NA,NA,NA,NA,NA,NA,NA,NA,NA,NA,NA,NA,NA,NA,NA,NA
35217,4035692,"HighSchool",2016,30,"Tyler Vaughns","Bishop Amat","USC",73.5,177,4,0.9816,"La Puente","CA","USA",34.01979,-117.9503677,6037,NA,NA,NA,NA,NA,NA,NA,NA,NA,NA,NA,NA,NA,NA,NA,NA,NA,NA,NA
35216,4034964,"HighSchool",2016,34,"Tyrie Cleveland","Westfield","Florida",74.5,189,4,0.981,"Houston","TX","USA",29.7589382,-95.3676974,48201,NA,NA,NA,NA,NA,NA,NA,NA,NA,NA,NA,NA,NA,NA,NA,NA,NA,NA,NA
35221,4047646,"HighSchool",2016,36,"A.J. Brown","Starkville","Ole Miss",73,220,4,0.9803,"Starkville","MS","USA",33.4503998,-88.8183872,28105,NA,NA,NA,NA,NA,NA,NA,NA,NA,NA,NA,NA,NA,NA,NA,NA,NA,NA,NA
35219,4039050,"HighSchool",2016,37,"Devin Duvernay","Sachse","Texas",71,195,4,0.9803,"Sachse","TX","USA",32.9762327,-96.5952703,48113,364,"BAL",26,"WR",13,1,9,4,0.444,18,4.5,0,0,11.1,10,2,0.3,1.4,0
35227,4035493,"HighSchool",2016,45,"Nate Craig-Myers","Tampa Catholic","Auburn",74,205,4,0.9767,"Tampa","FL","USA",27.9477595,-82.458444,12057,NA,NA,NA,NA,NA,NA,NA,NA,NA,NA,NA,NA,NA,NA,NA,NA,NA,NA,NA
35236,4047839,"HighSchool",2016,53,"N'Keal Harry","Chandler","Arizona State",76,210,4,0.9732,"Chandler","AZ","USA",33.3062223,-111.8413317,4013,NA,NA,NA,NA,NA,NA,NA,NA,NA,NA,NA,NA,NA,NA,NA,NA,NA,NA,NA
35252,4035687,"HighSchool",2016,59,"Michael Pittman Jr.","Oaks Christian","USC",76,209,4,0.9688,"Thousand Oaks","CA","USA",34.17142715,-118.910587729744,6111,5,"IND",26,"WR",16,15,156,109,0.699,1152,10.6,4,53,51.9,75,7.4,6.8,72,2
35259,4040623,"HighSchool",2016,72,"Austin Mack","Bishop Luers","Ohio State",74,205,4,0.9649,"Fort Wayne","IN","USA",41.0799898,-85.1386015,18003,NA,NA,NA,NA,NA,NA,NA,NA,NA,NA,NA,NA,NA,NA,NA,NA,NA,NA,NA
35255,4035499,"HighSchool",2016,75,"Kyle Davis","Archer","Auburn",73.5,218,4,0.9641,"Lawrenceville","GA","USA",33.9562149,-83.9879625,13135,NA,NA,NA,NA,NA,NA,NA,NA,NA,NA,NA,NA,NA,NA,NA,NA,NA,NA,NA
35265,NA,"HighSchool",2016,83,"Sam Bruce","St. Thomas Aquinas","Miami",68,180,4,0.9584,"Fort Lauderdale","FL","USA",26.1223084,-80.1433786,12011,NA,NA,NA,NA,NA,NA,NA,NA,NA,NA,NA,NA,NA,NA,NA,NA,NA,NA,NA
35283,4040628,"HighSchool",2016,96,"Binjimen Victor","Coconut Creek","Ohio State",76,180,4,0.9546,"Fort Lauderdale","FL","USA",26.1223084,-80.1433786,12011,NA,NA,NA,NA,NA,NA,NA,NA,NA,NA,NA,NA,NA,NA,NA,NA,NA,NA,NA
35286,4035818,"HighSchool",2016,101,"Theo Howard","Westlake","UCLA",73,175,4,0.9533,"Thousand Oaks","CA","USA",34.17142715,-118.910587729744,6111,NA,NA,NA,NA,NA,NA,NA,NA,NA,NA,NA,NA,NA,NA,NA,NA,NA,NA,NA
35288,NA,"HighSchool",2016,103,"Tren'Davian Dickson","Navasota","Houston",71,163,4,0.9521,"Navasota","TX","USA",30.3874135,-96.0875066,48185,NA,NA,NA,NA,NA,NA,NA,NA,NA,NA,NA,NA,NA,NA,NA,NA,NA,NA,NA
35291,4036509,"HighSchool",2016,107,"Donnie Corley","Martin Luther King","Michigan State",74.5,185,4,0.9504,"Wyandotte","MI","USA",42.2006617,-83.1510164,26163,NA,NA,NA,NA,NA,NA,NA,NA,NA,NA,NA,NA,NA,NA,NA,NA,NA,NA,NA
35296,4047650,"HighSchool",2016,109,"D.K. Metcalf","Oxford","Ole Miss",75.75,205,4,0.9485,"Oxford","MS","USA",34.3664127,-89.5187664,28071,NA,NA,NA,NA,NA,NA,NA,NA,NA,NA,NA,NA,NA,NA,NA,NA,NA,NA,NA
35295,4035628,"HighSchool",2016,112,"Keith Gavin","Wakulla","Florida State",75,219,4,0.9457,"Crawfordville","FL","USA",30.1760358,-84.3751778,12129,NA,NA,NA,NA,NA,NA,NA,NA,NA,NA,NA,NA,NA,NA,NA,NA,NA,NA,NA
35294,4046686,"HighSchool",2016,113,"Javon McKinley","Centennial","Notre Dame",73.75,194,4,0.9464,"Corona","CA","USA",33.8752945,-117.5664449,6065,NA,NA,NA,NA,NA,NA,NA,NA,NA,NA,NA,NA,NA,NA,NA,NA,NA,NA,NA
35303,4046519,"HighSchool",2016,117,"Kekoa Crawford","Santa Margarita Catholic","Michigan",73,186,4,0.9455,"Rancho Santa Margarita","CA","USA",33.6408845,-117.6029341,6059,NA,NA,NA,NA,NA,NA,NA,NA,NA,NA,NA,NA,NA,NA,NA,NA,NA,NA,NA
35305,4035500,"HighSchool",2016,123,"Eli Stove","Niceville","Auburn",73,178,4,0.9431,"Niceville","FL","USA",30.5168639,-86.482172,12091,NA,NA,NA,NA,NA,NA,NA,NA,NA,NA,NA,NA,NA,NA,NA,NA,NA,NA,NA
35306,4035426,"HighSchool",2016,125,"Stephen Sullivan","Donaldsonville","LSU",77,230,4,0.9427,"Donaldsonville","LA","USA",30.1010324,-90.9928774,22005,272,"CAR",27,"TE",11,0,24,12,0.5,125,10.4,0,5,37.5,20,5.2,1.1,11.4,0
35310,4034950,"HighSchool",2016,126,"Freddie Swain","North Marion","Florida",73,188,4,0.9423,"Citra","FL","USA",29.4119166,-82.1098156,12083,NA,NA,NA,NA,NA,NA,NA,NA,NA,NA,NA,NA,NA,NA,NA,NA,NA,NA,NA
35312,4035221,"HighSchool",2016,127,"Quartney Davis","Langham Creek","Texas A&M",74.5,181,4,0.9422,"Houston","TX","USA",29.7589382,-95.3676974,48201,NA,NA,NA,NA,NA,NA,NA,NA,NA,NA,NA,NA,NA,NA,NA,NA,NA,NA,NA
35307,4035435,"HighSchool",2016,128,"Drake Davis","IMG Academy","LSU",76,215,4,0.9419,"Bradenton","FL","USA",27.4989278,-82.5748194,12081,NA,NA,NA,NA,NA,NA,NA,NA,NA,NA,NA,NA,NA,NA,NA,NA,NA,NA,NA
35317,4035020,"HighSchool",2016,137,"Charlie Woerner","Rabun County","Georgia",77,230,4,0.9386,"Tiger","GA","USA",34.8470372,-83.4329399,13241,396,"SFO",26,"TE",17,2,3,3,1,32,10.7,0,1,66.7,20,10.7,0.2,1.9,0
35324,4035702,"HighSchool",2016,142,"Trevon Sidney","Bishop Amat","USC",71,157,4,0.936,"La Puente","CA","USA",34.01979,-117.9503677,6037,NA,NA,NA,NA,NA,NA,NA,NA,NA,NA,NA,NA,NA,NA,NA,NA,NA,NA,NA
35332,4037469,"HighSchool",2016,146,"Ahmmon Richards","Wellington","Miami",73.5,171,4,0.9342,"West Palm Beach","FL","USA",26.715364,-80.0532942,12099,NA,NA,NA,NA,NA,NA,NA,NA,NA,NA,NA,NA,NA,NA,NA,NA,NA,NA,NA
35334,4035689,"HighSchool",2016,156,"Josh Imatorbhebhe","North Gwinnett","USC",74,205,4,0.9314,"Suwanee","GA","USA",34.0514898,-84.0712997,13135,NA,NA,NA,NA,NA,NA,NA,NA,NA,NA,NA,NA,NA,NA,NA,NA,NA,NA,NA
35329,4035465,"HighSchool",2016,157,"Cornell Powell","J.H. Rose","Clemson",74,200,4,0.9314,"Greenville","NC","USA",35.612661,-77.3663538,37147,NA,NA,NA,NA,NA,NA,NA,NA,NA,NA,NA,NA,NA,NA,NA,NA,NA,NA,NA
35347,NA,"HighSchool",2016,163,"Joshua Hammond","Hallandale","Florida",72.5,180,4,0.9294,"Hallandale","FL","USA",25.9856005999999,-80.1399967146433,12011,NA,NA,NA,NA,NA,NA,NA,NA,NA,NA,NA,NA,NA,NA,NA,NA,NA,NA,NA
35340,4360739,"HighSchool",2016,168,"Simi Fehoko","Brighton","Stanford",75.5,182,4,0.9285,"Salt Lake City","UT","USA",40.7596198,-111.8867975,49035,427,"LAC",26,"WR",6,0,2,1,0.5,9,9,1,1,50,9,4.5,0.2,1.5,0
35353,4046692,"HighSchool",2016,170,"Chase Claypool","Abbotsford","Notre Dame",77,205,4,0.9258,"Abbotsford","BC","CAN",NA,NA,NA,304,"2TM",25,"WR",12,2,21,8,0.381,77,9.6,1,4,23.8,20,3.7,0.7,6.4,0
35345,4038938,"HighSchool",2016,171,"Dillon Mitchell","White Station","Oregon",72.5,191,4,0.928,"Memphis","TN","USA",35.1490215,-90.0516285,47157,NA,NA,NA,NA,NA,NA,NA,NA,NA,NA,NA,NA,NA,NA,NA,NA,NA,NA,NA
35365,4047648,"HighSchool",2016,176,"Tre Nixon","Viera","Ole Miss",73,170,4,0.9256,"Melbourne","FL","USA",28.0836269,-80.6081089,12009,NA,NA,NA,NA,NA,NA,NA,NA,NA,NA,NA,NA,NA,NA,NA,NA,NA,NA,NA
35380,4046719,"HighSchool",2016,177,"Justin Layne","Benedictine","Michigan State",75,180,4,0.9252,"Cleveland","OH","USA",41.5051613,-81.6934446,39035,NA,NA,NA,NA,NA,NA,NA,NA,NA,NA,NA,NA,NA,NA,NA,NA,NA,NA,NA
35371,4035427,"HighSchool",2016,183,"Dee Anderson","DeSoto","LSU",77,205,4,0.9242,"DeSoto","TX","USA",32.6061241,-96.865612653687,48113,NA,NA,NA,NA,NA,NA,NA,NA,NA,NA,NA,NA,NA,NA,NA,NA,NA,NA,NA
67215,4035254,"HighSchool",2016,193,"Klyde Chriss","Warren Easton","Texas A&M",72,170,4,0.9228,"New Orleans","LA","USA",29.9499323,-90.0701156,22071,NA,NA,NA,NA,NA,NA,NA,NA,NA,NA,NA,NA,NA,NA,NA,NA,NA,NA,NA
35375,4035464,"HighSchool",2016,195,"Diondre Overton","Page","Clemson",77,200,4,0.9227,"Greensboro","NC","USA",36.0726355,-79.7919754,37081,NA,NA,NA,NA,NA,NA,NA,NA,NA,NA,NA,NA,NA,NA,NA,NA,NA,NA,NA
35364,NA,"HighSchool",2016,197,"Darian Owens","Clovis West",NA,72,190,4,0.9225,"Fresno","CA","USA",36.7295295,-119.708861260755,6019,NA,NA,NA,NA,NA,NA,NA,NA,NA,NA,NA,NA,NA,NA,NA,NA,NA,NA,NA
35385,4039043,"HighSchool",2016,198,"Collin Johnson","Valley Christian","Texas",78,200,4,0.9225,"San Jose","CA","USA",37.3361905,-121.8905833,6085,439,"CHI",26,"WR",3,0,1,1,1,11,11,0,1,100,11,11,0.3,3.7,0
35382,4035254,"HighSchool",2016,199,"Clyde Chriss","Warren Easton","Texas A&M",72,170,4,0.9191,"New Orleans","LA","USA",29.9499323,-90.0701156,22071,NA,NA,NA,NA,NA,NA,NA,NA,NA,NA,NA,NA,NA,NA,NA,NA,NA,NA,NA
35409,4038818,"HighSchool",2016,215,"Bryan Edwards","Conway","South Carolina",75,208,4,0.9169,"Conway","SC","USA",33.8360035,-79.0478143,45051,NA,NA,NA,NA,NA,NA,NA,NA,NA,NA,NA,NA,NA,NA,NA,NA,NA,NA,NA
35394,4035466,"HighSchool",2016,221,"T.J. Chase","Plant City","Clemson",74,167,4,0.9158,"Plant City","FL","USA",28.01806015,-82.1184819850712,12057,NA,NA,NA,NA,NA,NA,NA,NA,NA,NA,NA,NA,NA,NA,NA,NA,NA,NA,NA
35405,4046715,"HighSchool",2016,227,"Trishton Jackson","West Bloomfield","Michigan State",75,190,4,0.9134,"West Bloomfield","MI","USA",42.5679,-83.3733,36069,402,"MIN",25,"WR",7,0,4,2,0.5,9,4.5,0,0,0,7,2.3,0.3,1.3,0
35419,4037639,"HighSchool",2016,229,"Mykel Jones","Patterson","Oklahoma",72,180,4,0.9131,"Patterson","LA","USA",29.6933,-91.3021,6099,NA,NA,NA,NA,NA,NA,NA,NA,NA,NA,NA,NA,NA,NA,NA,NA,NA,NA,NA
35414,4033416,"HighSchool",2016,240,"Cameron Chambers","Timber Creek","Michigan State",73.5,204,4,0.9103,"Sicklerville","NJ","USA",39.7173375,-74.9693329,34007,NA,NA,NA,NA,NA,NA,NA,NA,NA,NA,NA,NA,NA,NA,NA,NA,NA,NA,NA
36335,4035015,"HighSchool",2016,246,"Riley Ridley","Deerfield Beach","Georgia",73.5,198,4,0.9089,"Deerfield Beach","FL","USA",26.318342,-80.0996306,12011,NA,NA,NA,NA,NA,NA,NA,NA,NA,NA,NA,NA,NA,NA,NA,NA,NA,NA,NA
35436,4059524,"HighSchool",2016,255,"Dionte Mullins","Gulliver Prep","Miami",70.5,179,4,0.9076,"Miami","FL","USA",25.7742658,-80.1936589,12086,NA,NA,NA,NA,NA,NA,NA,NA,NA,NA,NA,NA,NA,NA,NA,NA,NA,NA,NA
35453,-1042722,"HighSchool",2016,256,"Steven Smothers","Franklin","West Virginia",70,152,4,0.9074,"Reisterstown","MD","USA",39.4695489,-76.8294213,24005,NA,NA,NA,NA,NA,NA,NA,NA,NA,NA,NA,NA,NA,NA,NA,NA,NA,NA,NA
35441,NA,"HighSchool",2016,258,"Desmond Fitzpatrick","Waterford Mott","Louisville",74,189,4,0.9048,"Waterford","MI","USA",42.6907,-83.4066,6099,NA,NA,NA,NA,NA,NA,NA,NA,NA,NA,NA,NA,NA,NA,NA,NA,NA,NA,NA
35454,4036214,"HighSchool",2016,259,"Tino Ellis","DeMatha Catholic","Maryland",73,185,4,0.9071,"Hyattsville","MD","USA",38.9529442,-76.9408647,24033,NA,NA,NA,NA,NA,NA,NA,NA,NA,NA,NA,NA,NA,NA,NA,NA,NA,NA,NA
35440,4035816,"HighSchool",2016,270,"Dymond Lee","Chaminade","UCLA",74,174,4,0.9056,"West Hills","CA","USA",34.2032325,-118.645476,6037,NA,NA,NA,NA,NA,NA,NA,NA,NA,NA,NA,NA,NA,NA,NA,NA,NA,NA,NA
35461,4039301,"HighSchool",2016,271,"Courtney Lark","Bellaire","Houston",73,175,4,0.9055,"Bellaire","TX","USA",29.7057858,-95.4588299,48201,NA,NA,NA,NA,NA,NA,NA,NA,NA,NA,NA,NA,NA,NA,NA,NA,NA,NA,NA
67219,4036026,"HighSchool",2016,273,"Dez Fitzpatrick","Waterford Mott","Louisville",74,189,4,0.9048,"Waterford","MI","USA",42.6907,-83.4066,6099,NA,NA,NA,NA,NA,NA,NA,NA,NA,NA,NA,NA,NA,NA,NA,NA,NA,NA,NA
35471,4258179,"HighSchool",2016,283,"Brad Hawkins","Camden","Michigan",73,202,4,0.9029,"Camden","NJ","USA",39.9448402,-75.1198911,34007,NA,NA,NA,NA,NA,NA,NA,NA,NA,NA,NA,NA,NA,NA,NA,NA,NA,NA,NA
35480,4044113,"HighSchool",2016,292,"Darnell Salomon","Miami Central","South Florida",75,210,4,0.9005,"Hollywood","FL","USA",26.0112014,-80.1494901,12011,NA,NA,NA,NA,NA,NA,NA,NA,NA,NA,NA,NA,NA,NA,NA,NA,NA,NA,NA
35488,4038532,"HighSchool",2016,303,"Isaiah Graham","Bastrop","TCU",73,185,4,0.8966,"Bastrop","LA","USA",32.7761446,-91.9082967,48021,NA,NA,NA,NA,NA,NA,NA,NA,NA,NA,NA,NA,NA,NA,NA,NA,NA,NA,NA
35517,-1038214,"HighSchool",2016,321,"Audie Omotosho","Plano East","UCLA",74,189,4,0.8933,"Plano","TX","USA",33.0136764,-96.6925096,48085,NA,NA,NA,NA,NA,NA,NA,NA,NA,NA,NA,NA,NA,NA,NA,NA,NA,NA,NA
35502,4043158,"HighSchool",2016,329,"T.J. Vasher","Rider","Texas Tech",77,180,4,0.8919,"Wichita Falls","TX","USA",33.9137085,-98.4933873,48485,NA,NA,NA,NA,NA,NA,NA,NA,NA,NA,NA,NA,NA,NA,NA,NA,NA,NA,NA
35521,4040723,"HighSchool",2016,344,"T.J. Simmons","Clay-Chalkville","Alabama",74,180,3,0.8887,"Pinson","AL","USA",33.706205,-86.6700789599277,1073,NA,NA,NA,NA,NA,NA,NA,NA,NA,NA,NA,NA,NA,NA,NA,NA,NA,NA,NA
35532,NA,"HighSchool",2016,353,"Steffon McKnight","Mira Mesa",NA,73,160,3,0.8863,"San Diego","CA","USA",32.7174209,-117.1627714,6073,NA,NA,NA,NA,NA,NA,NA,NA,NA,NA,NA,NA,NA,NA,NA,NA,NA,NA,NA
35556,4044148,"HighSchool",2016,360,"Dredrick Snelson","Charles W Flanagan","UCF",72,198,3,0.8849,"Fort Lauderdale","FL","USA",26.1223084,-80.1433786,12011,NA,NA,NA,NA,NA,NA,NA,NA,NA,NA,NA,NA,NA,NA,NA,NA,NA,NA,NA
35550,NA,"HighSchool",2016,367,"D.J. Turner","DeMatha Catholic","Maryland",69,175,3,0.8829,"Hyattsville","MD","USA",38.9529442,-76.9408647,24033,NA,NA,NA,NA,NA,NA,NA,NA,NA,NA,NA,NA,NA,NA,NA,NA,NA,NA,NA
67221,4036211,"HighSchool",2016,374,"DJ Turner","DeMatha Catholic","Maryland",69,175,3,0.8829,"Hyattsville","MD","USA",38.9529442,-76.9408647,24033,NA,NA,NA,NA,NA,NA,NA,NA,NA,NA,NA,NA,NA,NA,NA,NA,NA,NA,NA
35579,4046531,"HighSchool",2016,378,"Eddie McDoom","West Orange","Michigan",71,170,3,0.8825,"Winter Garden","FL","USA",28.5656649,-81.5856742,12095,NA,NA,NA,NA,NA,NA,NA,NA,NA,NA,NA,NA,NA,NA,NA,NA,NA,NA,NA
67222,NA,"HighSchool",2016,379,"Keyshawn Pie Young","Miami Senior","USC",71,175,3,0.8825,"Miami","FL","USA",25.7742658,-80.1936589,12086,NA,NA,NA,NA,NA,NA,NA,NA,NA,NA,NA,NA,NA,NA,NA,NA,NA,NA,NA
35554,4035018,"HighSchool",2016,381,"Tyler Simmons","McEachern","Georgia",71,194,3,0.8822,"Powder Springs","GA","USA",33.8595492,-84.683824,13067,NA,NA,NA,NA,NA,NA,NA,NA,NA,NA,NA,NA,NA,NA,NA,NA,NA,NA,NA
35555,4039055,"HighSchool",2016,382,"Reggie Hemphill-Mapps","Manvel","Texas",73,172,3,0.8822,"Manvel","TX","USA",29.4664706,-95.355714,48039,NA,NA,NA,NA,NA,NA,NA,NA,NA,NA,NA,NA,NA,NA,NA,NA,NA,NA,NA
35593,4035390,"HighSchool",2016,383,"Jared Atkinson","Horn","Baylor",75,199,3,0.882,"Mesquite","TX","USA",32.7666103,-96.599472,48113,NA,NA,NA,NA,NA,NA,NA,NA,NA,NA,NA,NA,NA,NA,NA,NA,NA,NA,NA
35586,4035690,"HighSchool",2016,403,"Keyshawn Young","Miami Senior","USC",71,175,3,0.8789,"Miami","FL","USA",25.7742658,-80.1936589,12086,NA,NA,NA,NA,NA,NA,NA,NA,NA,NA,NA,NA,NA,NA,NA,NA,NA,NA,NA
35626,4035403,"HighSchool",2016,408,"Denzel Mims","Daingerfield","Baylor",76,180,3,0.8792,"Daingerfield","TX","USA",33.0318031,-94.7219895,48343,NA,NA,NA,NA,NA,NA,NA,NA,NA,NA,NA,NA,NA,NA,NA,NA,NA,NA,NA
35582,NA,"HighSchool",2016,409,"Camron Williams","Skyline","TCU",75,210,3,0.8791,"Dallas","TX","USA",32.7762719,-96.7968559,48113,NA,NA,NA,NA,NA,NA,NA,NA,NA,NA,NA,NA,NA,NA,NA,NA,NA,NA,NA
